{"type":"FeatureCollection", "features": [
{"type":"Feature","geometry":{"type":"Point","coordinates":[2.727284421052559,42.42275502603578]},"properties":{"id":1,"clase":"Cima principal","nombre":"Roc del Comptador","cotatxt":1.451,"puerto_carretera":"No","municipio":"Maçanet de Cabrenys","provincia":"","cota":"mil"}},
{"type":"Feature","geometry":{"type":"Point","coordinates":[-0.26059037993510714,42.781500615811744]},"properties":{"id":2,"clase":"Cima principal","nombre":"Picos del Infierno","cotatxt":3.08,"puerto_carretera":"No","municipio":"Panticosa","provincia":"Huesca","cota":"tresmil"}},
{"type":"Feature","geometry":{"type":"Point","coordinates":[2.68614941884076,42.07246321140445]},"properties":{"id":3,"clase":"Cima principal","nombre":"Rocacorba","cotatxt":991,"puerto_carretera":"No","municipio":"Canet d'Adri","provincia":"Girona","cota":"menosmil"}},
{"type":"Feature","geometry":{"type":"Point","coordinates":[0.33942510633800055,42.71045259195868]},"properties":{"id":4,"clase":"Cima principal","nombre":"Pico de Culfreda/Pico de Batoua","cotatxt":3.035,"puerto_carretera":"No","municipio":"Gistaín","provincia":"Huesca","cota":"tresmil"}},
{"type":"Feature","geometry":{"type":"Point","coordinates":[-8.318549053729178,42.38895810218462]},"properties":{"id":5,"clase":"Cima principal","nombre":"O Coto da Poza","cotatxt":1.025,"puerto_carretera":"No","municipio":"Avión","provincia":"Ourense","cota":"mil"}},
{"type":"Feature","geometry":{"type":"Point","coordinates":[1.328894779753511,42.505755575227944]},"properties":{"id":6,"clase":"Cima principal","nombre":"Pic de Màniga","cotatxt":2.516,"puerto_carretera":"No","municipio":"Alins","provincia":"Lleida","cota":"dosmil"}},
{"type":"Feature","geometry":{"type":"Point","coordinates":[-3.055118440413762,42.03885197946602]},"properties":{"id":7,"clase":"Cima principal","nombre":"Campiña","cotatxt":2.044,"puerto_carretera":"No","municipio":"Valle de Valdelaguna","provincia":"Burgos","cota":"dosmil"}},
{"type":"Feature","geometry":{"type":"Point","coordinates":[-1.142272435795964,39.63534594970009]},"properties":{"id":8,"clase":"Cima principal","nombre":"El Negrete","cotatxt":1.292,"puerto_carretera":"No","municipio":"Utiel","provincia":"València/Valencia","cota":"mil"}},
{"type":"Feature","geometry":{"type":"Point","coordinates":[-5.548021430020029,36.063357269749666]},"properties":{"id":9,"clase":"Cima principal","nombre":"Cabrito","cotatxt":538,"puerto_carretera":"No","municipio":"Tarifa","provincia":"Cádiz","cota":"menosmil"}},
{"type":"Feature","geometry":{"type":"Point","coordinates":[-0.44978233140665996,39.69843043414266]},"properties":{"id":10,"clase":"Cima principal","nombre":"Monte els Rebalsadors","cotatxt":801,"puerto_carretera":"No","municipio":"Serra","provincia":"València/Valencia","cota":"menosmil"}},
{"type":"Feature","geometry":{"type":"Point","coordinates":[-4.816672208784477,39.54753805007196]},"properties":{"id":11,"clase":"Cima principal","nombre":"Moradas","cotatxt":1.379,"puerto_carretera":"No","municipio":"Robledo del Mazo","provincia":"Toledo","cota":"mil"}},
{"type":"Feature","geometry":{"type":"Point","coordinates":[-13.494717780282638,29.09907786939527]},"properties":{"id":12,"clase":"Cima principal","nombre":"Montaña las Mesas","cotatxt":445,"puerto_carretera":"No","municipio":"Teguise","provincia":"Las Palmas","cota":"menosmil"}},
{"type":"Feature","geometry":{"type":"Point","coordinates":[-15.687737620387326,28.049476379483682]},"properties":{"id":13,"clase":"Cima principal","nombre":"Montaña de Tamadaba","cotatxt":1.444,"puerto_carretera":"No","municipio":"Agaete","provincia":"Las Palmas","cota":"mil"}},
{"type":"Feature","geometry":{"type":"Point","coordinates":[-17.981739630100357,27.74663703991534]},"properties":{"id":14,"clase":"Cima principal","nombre":"Montaña de los Espinillos","cotatxt":1.371,"puerto_carretera":"No","municipio":"Valverde","provincia":"Santa Cruz de Tenerife","cota":"mil"}},
{"type":"Feature","geometry":{"type":"Point","coordinates":[-18.040311070317504,27.728776929835337]},"properties":{"id":15,"clase":"Cima principal","nombre":"Malpaso","cotatxt":1.499,"puerto_carretera":"No","municipio":"El Pinar de El Hierro","provincia":"Santa Cruz de Tenerife","cota":"mil"}},
{"type":"Feature","geometry":{"type":"Point","coordinates":[-13.939426269759426,28.356054559445994]},"properties":{"id":16,"clase":"Cima principal","nombre":"La Atalaya de Agudo","cotatxt":500,"puerto_carretera":"No","municipio":"Antigua","provincia":"Las Palmas","cota":"menosmil"}},
{"type":"Feature","geometry":{"type":"Point","coordinates":[0.6982229701745709,42.602090664272]},"properties":{"id":17,"clase":"Cima principal","nombre":"Pico Soubirón","cotatxt":2.808,"puerto_carretera":"No","municipio":"Montanuy","provincia":"Huesca","cota":"dosmil"}},
{"type":"Feature","geometry":{"type":"Point","coordinates":[3.2856748992791927,39.71751017752103]},"properties":{"id":18,"clase":"Cima principal","nombre":"es Bec de Ferrutx","cotatxt":524,"puerto_carretera":"No","municipio":"Artà","provincia":"Illes Balears","cota":"menosmil"}},
{"type":"Feature","geometry":{"type":"Point","coordinates":[-3.843338759916901,37.737417359280094]},"properties":{"id":19,"clase":"Cima principal","nombre":"Jabalcuz","cotatxt":1.613,"puerto_carretera":"No","municipio":"Jaén","provincia":"Jaén","cota":"mil"}},
{"type":"Feature","geometry":{"type":"Point","coordinates":[-2.349364756668485,40.06043086379223]},"properties":{"id":20,"clase":"Cima principal","nombre":"Tierras Blancas","cotatxt":1.187,"puerto_carretera":"No","municipio":"Abia de la Obispalía","provincia":"Cuenca","cota":"mil"}},
{"type":"Feature","geometry":{"type":"Point","coordinates":[-1.8208386595696622,41.76618957972166]},"properties":{"id":21,"clase":"Cima principal","nombre":"Alto del Moncayo","cotatxt":2.226,"puerto_carretera":"No","municipio":"Añón de Moncayo","provincia":"Zaragoza","cota":"dosmil"}},
{"type":"Feature","geometry":{"type":"Point","coordinates":[-4.426724339901277,39.5292806694304]},"properties":{"id":22,"clase":"Cima principal","nombre":"Cerro Vicente","cotatxt":1.435,"puerto_carretera":"No","municipio":"Menasalbas","provincia":"Toledo","cota":"mil"}},
{"type":"Feature","geometry":{"type":"Point","coordinates":[-3.710333533298515,40.72931690674036]},"properties":{"id":23,"clase":"Cima principal","nombre":"Cerro de San Pedro","cotatxt":1.421,"puerto_carretera":"No","municipio":"Guadalix de la Sierra","provincia":"Madrid","cota":"mil"}},
{"type":"Feature","geometry":{"type":"Point","coordinates":[0.42661579712209835,42.64979486971546]},"properties":{"id":24,"clase":"Cima principal","nombre":"Punta Llardaneta/Pico Espadas","cotatxt":3.328,"puerto_carretera":"No","municipio":"Sahún","provincia":"Huesca","cota":"tresmil"}},
{"type":"Feature","geometry":{"type":"Point","coordinates":[1.2181353717456451,42.20143638836183]},"properties":{"id":25,"clase":"Cima principal","nombre":"L'Oratori","cotatxt":1.755,"puerto_carretera":"No","municipio":"Coll de Nargó","provincia":"Lleida","cota":"mil"}},
{"type":"Feature","geometry":{"type":"Point","coordinates":[-6.842279139728368,42.822503589309086]},"properties":{"id":26,"clase":"Cima principal","nombre":"Pico del Mostallar","cotatxt":1.935,"puerto_carretera":"No","municipio":"Vega de Espinareda","provincia":"León","cota":"mil"}},
{"type":"Feature","geometry":{"type":"Point","coordinates":[-13.976723880181591,28.596316889323738]},"properties":{"id":27,"clase":"Cima principal","nombre":"Montaña Tindaya","cotatxt":400,"puerto_carretera":"No","municipio":"La Oliva","provincia":"Las Palmas","cota":"menosmil"}},
{"type":"Feature","geometry":{"type":"Point","coordinates":[-1.5162410598288472,42.54244567741127]},"properties":{"id":28,"clase":"Cima principal","nombre":"Chucho Alto","cotatxt":932,"puerto_carretera":"No","municipio":"Ujué/Uxue","provincia":"Navarra","cota":"menosmil"}},
{"type":"Feature","geometry":{"type":"Point","coordinates":[-3.7586692817075114,37.60395860088286]},"properties":{"id":29,"clase":"Cima principal","nombre":"Cerro de la Horca","cotatxt":1.766,"puerto_carretera":"No","municipio":"Valdepeñas de Jaén","provincia":"Jaén","cota":"mil"}},
{"type":"Feature","geometry":{"type":"Point","coordinates":[3.2523067822178393,39.64570830779831]},"properties":{"id":30,"clase":"Cima principal","nombre":"Muntanya de Calicant","cotatxt":473,"puerto_carretera":"No","municipio":"Sant Llorenç des Cardassar","provincia":"Illes Balears","cota":"menosmil"}},
{"type":"Feature","geometry":{"type":"Point","coordinates":[-5.1363556626558795,40.28726250487492]},"properties":{"id":31,"clase":"Cima principal","nombre":"Peñón del Mediodía","cotatxt":2.216,"puerto_carretera":"No","municipio":"El Hornillo","provincia":"Ávila","cota":"dosmil"}},
{"type":"Feature","geometry":{"type":"Point","coordinates":[-0.8369919125216773,42.954766164630584]},"properties":{"id":32,"clase":"Cima principal","nombre":"Pico Lakora","cotatxt":1.864,"puerto_carretera":"No","municipio":"","provincia":"","cota":"mil"}},
{"type":"Feature","geometry":{"type":"Point","coordinates":[-0.5272373668057407,42.30565412883908]},"properties":{"id":33,"clase":"Cima principal","nombre":"Naviella","cotatxt":1.515,"puerto_carretera":"No","municipio":"Arguis","provincia":"Huesca","cota":"mil"}},
{"type":"Feature","geometry":{"type":"Point","coordinates":[-4.730796874358497,43.02240471548911]},"properties":{"id":34,"clase":"Cima principal","nombre":"Monte Infierno/Peña del Infierno","cotatxt":2.537,"puerto_carretera":"No","municipio":"Vega de Liébana","provincia":"Cantabria","cota":"dosmil"}},
{"type":"Feature","geometry":{"type":"Point","coordinates":[-5.359671870112891,36.20645142948367]},"properties":{"id":35,"clase":"Cima principal","nombre":"Carboneras","cotatxt":311,"puerto_carretera":"No","municipio":"La Línea de la Concepción","provincia":"Cádiz","cota":"menosmil"}},
{"type":"Feature","geometry":{"type":"Point","coordinates":[-17.837364579644486,28.569539959417664]},"properties":{"id":36,"clase":"Cima principal","nombre":"Volcán de la Deseada","cotatxt":1.944,"puerto_carretera":"No","municipio":"Villa de Mazo","provincia":"Santa Cruz de Tenerife","cota":"mil"}},
{"type":"Feature","geometry":{"type":"Point","coordinates":[-3.114023861677114,37.09458907879997]},"properties":{"id":37,"clase":"Cima principal","nombre":"Alto de San Juan","cotatxt":2.788,"puerto_carretera":"No","municipio":"Válor","provincia":"Granada","cota":"dosmil"}},
{"type":"Feature","geometry":{"type":"Point","coordinates":[-4.038320230325402,36.904076609291636]},"properties":{"id":38,"clase":"Cima principal","nombre":"Tejeda","cotatxt":2.069,"puerto_carretera":"No","municipio":"Sedella","provincia":"Málaga","cota":"dosmil"}},
{"type":"Feature","geometry":{"type":"Point","coordinates":[-6.825882349849147,40.248525839759175]},"properties":{"id":39,"clase":"Cima principal","nombre":"El Espinazo","cotatxt":1.331,"puerto_carretera":"No","municipio":"Eljas","provincia":"Cáceres","cota":"mil"}},
{"type":"Feature","geometry":{"type":"Point","coordinates":[-2.5217123982475327,40.7623978428815]},"properties":{"id":40,"clase":"Cima principal","nombre":"Pico de los Covachos","cotatxt":964,"puerto_carretera":"No","municipio":"Canredondo","provincia":"Guadalajara","cota":"menosmil"}},
{"type":"Feature","geometry":{"type":"Point","coordinates":[-1.7192226099507513,40.53432311962036]},"properties":{"id":41,"clase":"Cima principal","nombre":"Cerro de San Cristóbal","cotatxt":1.862,"puerto_carretera":"No","municipio":"Orea","provincia":"Guadalajara","cota":"mil"}},
{"type":"Feature","geometry":{"type":"Point","coordinates":[-5.398103958415777,40.2513779000335]},"properties":{"id":42,"clase":"Cima principal","nombre":"Alto de Batalla","cotatxt":2.264,"puerto_carretera":"No","municipio":"Bohoyo","provincia":"Ávila","cota":"dosmil"}},
{"type":"Feature","geometry":{"type":"Point","coordinates":[-15.70858388983633,28.009570029437132]},"properties":{"id":43,"clase":"Cima principal","nombre":"Altavista","cotatxt":1.375,"puerto_carretera":"No","municipio":"Artenara","provincia":"Las Palmas","cota":"mil"}},
{"type":"Feature","geometry":{"type":"Point","coordinates":[-6.291781459912341,40.377569582722515]},"properties":{"id":44,"clase":"Cima principal","nombre":"Arrobuey","cotatxt":1.403,"puerto_carretera":"No","municipio":"Caminomorisco","provincia":"Cáceres","cota":"mil"}},
{"type":"Feature","geometry":{"type":"Point","coordinates":[-6.198955601418337,40.481636100083804]},"properties":{"id":45,"clase":"Cima principal","nombre":"Cerro Rongiero","cotatxt":1.622,"puerto_carretera":"No","municipio":"Ladrillar","provincia":"Cáceres","cota":"mil"}},
{"type":"Feature","geometry":{"type":"Point","coordinates":[-6.777802630279296,42.880193749514724]},"properties":{"id":46,"clase":"Cima principal","nombre":"Miravalles","cotatxt":1.967,"puerto_carretera":"No","municipio":"Valle de Ancares","provincia":"León","cota":"mil"}},
{"type":"Feature","geometry":{"type":"Point","coordinates":[-6.832969740335542,42.27709461932285]},"properties":{"id":47,"clase":"Cima principal","nombre":"Pico Maluro","cotatxt":1.93,"puerto_carretera":"No","municipio":"A Veiga","provincia":"Ourense","cota":"mil"}},
{"type":"Feature","geometry":{"type":"Point","coordinates":[1.3211096264634252,41.448353289206864]},"properties":{"id":48,"clase":"Cima principal","nombre":"Puig de Comaverd","cotatxt":902,"puerto_carretera":"No","municipio":"El Pont d'Armentera","provincia":"Tarragona","cota":"menosmil"}},
{"type":"Feature","geometry":{"type":"Point","coordinates":[2.5364462475340486,42.02126290878329]},"properties":{"id":49,"clase":"Cima principal","nombre":"el Far","cotatxt":1.123,"puerto_carretera":"No","municipio":"Susqueda","provincia":"Girona","cota":"mil"}},
{"type":"Feature","geometry":{"type":"Point","coordinates":[-1.9341004272093851,37.6535319558701]},"properties":{"id":50,"clase":"Cima principal","nombre":"Cerro Salvarejo","cotatxt":1.012,"puerto_carretera":"No","municipio":"Lorca","provincia":"Murcia","cota":"mil"}},
{"type":"Feature","geometry":{"type":"Point","coordinates":[1.8927225942065637,42.32082905916974]},"properties":{"id":51,"clase":"Cima principal","nombre":"La Tosa/la Tosa/La Tossa d'Alp","cotatxt":2.534,"puerto_carretera":"No","municipio":"Das","provincia":"Girona","cota":"dosmil"}},
{"type":"Feature","geometry":{"type":"Point","coordinates":[0.19919909480343154,42.49090025138533]},"properties":{"id":52,"clase":"Cima principal","nombre":"O Puntón d’o Libro/Peña Montañesa/Peña de San Victoriano","cotatxt":2.287,"puerto_carretera":"No","municipio":"El Pueyo de Araguás","provincia":"Huesca","cota":"dosmil"}},
{"type":"Feature","geometry":{"type":"Point","coordinates":[-6.741928710343577,42.246375449592875]},"properties":{"id":53,"clase":"Cima principal","nombre":"Picón","cotatxt":2.08,"puerto_carretera":"No","municipio":"Encinedo","provincia":"León","cota":"dosmil"}},
{"type":"Feature","geometry":{"type":"Point","coordinates":[-6.875576509071214,40.259606715572914]},"properties":{"id":54,"clase":"Cima principal","nombre":"Telefín","cotatxt":1.134,"puerto_carretera":"No","municipio":"Valverde del Fresno","provincia":"Cáceres","cota":"mil"}},
{"type":"Feature","geometry":{"type":"Point","coordinates":[-4.974498759865531,43.212481049424234]},"properties":{"id":55,"clase":"Cima principal","nombre":"Torre Santa María","cotatxt":2.476,"puerto_carretera":"No","municipio":"Cangas de Onís","provincia":"Asturias","cota":"dosmil"}},
{"type":"Feature","geometry":{"type":"Point","coordinates":[1.8425007924343961,42.306292429574896]},"properties":{"id":56,"clase":"Cima principal","nombre":"Penyes Altes de Moixeró","cotatxt":2.269,"puerto_carretera":"No","municipio":"Guardiola de Berguedà","provincia":"Barcelona","cota":"dosmil"}},
{"type":"Feature","geometry":{"type":"Point","coordinates":[-2.0258325625904514,43.00009615152853]},"properties":{"id":57,"clase":"Cima principal","nombre":"Irumugarrieta","cotatxt":1.43,"puerto_carretera":"No","municipio":"Araitz","provincia":"Navarra","cota":"mil"}},
{"type":"Feature","geometry":{"type":"Point","coordinates":[-4.511873233706426,43.15337206422467]},"properties":{"id":58,"clase":"Cima principal","nombre":"Pico del Sierro","cotatxt":1.289,"puerto_carretera":"No","municipio":"Cabezón de Liébana","provincia":"Cantabria","cota":"mil"}},
{"type":"Feature","geometry":{"type":"Point","coordinates":[-6.4963448552146765,43.49427986716842]},"properties":{"id":59,"clase":"Cima principal","nombre":"Pico el Cándano","cotatxt":664,"puerto_carretera":"No","municipio":"Valdés","provincia":"Asturias","cota":"menosmil"}},
{"type":"Feature","geometry":{"type":"Point","coordinates":[-8.263665716979599,42.30208792193866]},"properties":{"id":60,"clase":"Cima principal","nombre":"O Castelo do Faro","cotatxt":1.155,"puerto_carretera":"No","municipio":"Melón","provincia":"Ourense","cota":"mil"}},
{"type":"Feature","geometry":{"type":"Point","coordinates":[-1.2151563148200446,43.02076796361214]},"properties":{"id":61,"clase":"Cima principal","nombre":"Mendilatz/Mendilaz","cotatxt":1.349,"puerto_carretera":"No","municipio":"Orbaizeta","provincia":"Navarra","cota":"mil"}},
{"type":"Feature","geometry":{"type":"Point","coordinates":[0.5456325129334044,42.701374107183845]},"properties":{"id":62,"clase":"Cima principal","nombre":"Pico de Maupás","cotatxt":3.111,"puerto_carretera":"No","municipio":"Benasque","provincia":"","cota":"tresmil"}},
{"type":"Feature","geometry":{"type":"Point","coordinates":[1.2776708479930927,42.71199547035731]},"properties":{"id":63,"clase":"Cima principal","nombre":"Pic de Certascan","cotatxt":2.849,"puerto_carretera":"No","municipio":"Lladorre","provincia":"Lleida","cota":"dosmil"}},
{"type":"Feature","geometry":{"type":"Point","coordinates":[-7.142548514496481,42.58187357268698]},"properties":{"id":64,"clase":"Cima principal","nombre":"Pía Paxaro","cotatxt":1.613,"puerto_carretera":"No","municipio":"Folgoso do Courel","provincia":"Lugo","cota":"mil"}},
{"type":"Feature","geometry":{"type":"Point","coordinates":[-6.123952109752138,42.2286083595796]},"properties":{"id":65,"clase":"Cima principal","nombre":"Peñascones","cotatxt":1.097,"puerto_carretera":"No","municipio":"Quintana y Congosto","provincia":"León","cota":"mil"}},
{"type":"Feature","geometry":{"type":"Point","coordinates":[-4.870247460139845,40.49215863918649]},"properties":{"id":66,"clase":"Cima principal","nombre":"Pico Zapatero","cotatxt":2.157,"puerto_carretera":"No","municipio":"Sotalbo","provincia":"Ávila","cota":"dosmil"}},
{"type":"Feature","geometry":{"type":"Point","coordinates":[-0.4677464002839776,41.721690729443594]},"properties":{"id":67,"clase":"Cima principal","nombre":"San Caprasio","cotatxt":834,"puerto_carretera":"No","municipio":"Alcubierre","provincia":"Huesca","cota":"menosmil"}},
{"type":"Feature","geometry":{"type":"Point","coordinates":[-4.280306062348544,40.69682557312824]},"properties":{"id":68,"clase":"Cima principal","nombre":"Cabeza Renales","cotatxt":1.759,"puerto_carretera":"No","municipio":"El Espinar","provincia":"Segovia","cota":"mil"}},
{"type":"Feature","geometry":{"type":"Point","coordinates":[-7.658664650049905,43.42038451934049]},"properties":{"id":69,"clase":"Cima principal","nombre":"Carba","cotatxt":908,"puerto_carretera":"No","municipio":"Vilalba","provincia":"Lugo","cota":"menosmil"}},
{"type":"Feature","geometry":{"type":"Point","coordinates":[-0.46335014589481827,42.330078214961546]},"properties":{"id":70,"clase":"Cima principal","nombre":"Bonés","cotatxt":1.608,"puerto_carretera":"No","municipio":"Arguis","provincia":"Huesca","cota":"mil"}},
{"type":"Feature","geometry":{"type":"Point","coordinates":[-5.62833943306054,38.57759474671267]},"properties":{"id":71,"clase":"Cima principal","nombre":"Montón de Trigo","cotatxt":708,"puerto_carretera":"No","municipio":"Zalamea de la Serena","provincia":"Badajoz","cota":"menosmil"}},
{"type":"Feature","geometry":{"type":"Point","coordinates":[-3.9518548725393803,40.763576272649225]},"properties":{"id":72,"clase":"Cima principal","nombre":"La Maliciosa Baja","cotatxt":1.938,"puerto_carretera":"No","municipio":"Manzanares el Real","provincia":"Madrid","cota":"mil"}},
{"type":"Feature","geometry":{"type":"Point","coordinates":[-1.0247454797636608,40.096986449629036]},"properties":{"id":73,"clase":"Cima principal","nombre":"Javalambre","cotatxt":2.018,"puerto_carretera":"No","municipio":"La Puebla de Valverde","provincia":"Teruel","cota":"dosmil"}},
{"type":"Feature","geometry":{"type":"Point","coordinates":[-7.077049143739009,42.50783136510173]},"properties":{"id":74,"clase":"Cima principal","nombre":"Alto de Montouto","cotatxt":1.541,"puerto_carretera":"No","municipio":"Quiroga","provincia":"Lugo","cota":"mil"}},
{"type":"Feature","geometry":{"type":"Point","coordinates":[-6.743745969824029,43.005040719319794]},"properties":{"id":75,"clase":"Cima principal","nombre":"Candanosa","cotatxt":1.676,"puerto_carretera":"No","municipio":"Ibias","provincia":"Asturias","cota":"mil"}},
{"type":"Feature","geometry":{"type":"Point","coordinates":[1.1794812369725138,42.5983695830986]},"properties":{"id":76,"clase":"Cima principal","nombre":"Lo Calbo","cotatxt":2.295,"puerto_carretera":"No","municipio":"Vall de Cardós","provincia":"Lleida","cota":"dosmil"}},
{"type":"Feature","geometry":{"type":"Point","coordinates":[-0.03580951072983145,42.311428015086456]},"properties":{"id":77,"clase":"Cima principal","nombre":"Tozal d'as Forcas/Cerro Forcas","cotatxt":1.541,"puerto_carretera":"No","municipio":"Aínsa-Sobrarbe","provincia":"Huesca","cota":"mil"}},
{"type":"Feature","geometry":{"type":"Point","coordinates":[1.5836778918382517,42.28716900480145]},"properties":{"id":78,"clase":"Cima principal","nombre":"Torreta de Cadí","cotatxt":2.561,"puerto_carretera":"No","municipio":"Cava","provincia":"Lleida","cota":"dosmil"}},
{"type":"Feature","geometry":{"type":"Point","coordinates":[-2.0368090195549136,40.95348858941014]},"properties":{"id":79,"clase":"Cima principal","nombre":"La Señorita","cotatxt":1.523,"puerto_carretera":"No","municipio":"Corduente","provincia":"Guadalajara","cota":"mil"}},
{"type":"Feature","geometry":{"type":"Point","coordinates":[-1.7854074797116388,40.41305775966358]},"properties":{"id":80,"clase":"Cima principal","nombre":"Cerro del Mojón Blanco","cotatxt":1.794,"puerto_carretera":"No","municipio":"Albarracín","provincia":"Teruel","cota":"mil"}},
{"type":"Feature","geometry":{"type":"Point","coordinates":[2.66135292471083,39.73128086531848]},"properties":{"id":81,"clase":"Cima principal","nombre":"Puig des Teix","cotatxt":1.064,"puerto_carretera":"No","municipio":"Deià","provincia":"Illes Balears","cota":"mil"}},
{"type":"Feature","geometry":{"type":"Point","coordinates":[0.46122450106555746,42.458143877062746]},"properties":{"id":82,"clase":"Cima principal","nombre":"Pico Baciero","cotatxt":2.115,"puerto_carretera":"No","municipio":"Seira","provincia":"Huesca","cota":"dosmil"}},
{"type":"Feature","geometry":{"type":"Point","coordinates":[1.4921947029786142,41.516685987090284]},"properties":{"id":83,"clase":"Cima principal","nombre":"Grony de Miralles","cotatxt":866,"puerto_carretera":"No","municipio":"Santa Maria de Miralles","provincia":"Barcelona","cota":"menosmil"}},
{"type":"Feature","geometry":{"type":"Point","coordinates":[-1.4299241100159374,42.712235179660496]},"properties":{"id":84,"clase":"Cima principal","nombre":"Peña de Izaga/Itzaga","cotatxt":1.362,"puerto_carretera":"No","municipio":"Izagaondoa","provincia":"Navarra","cota":"mil"}},
{"type":"Feature","geometry":{"type":"Point","coordinates":[0.12937861552696456,38.80322047771697]},"properties":{"id":85,"clase":"Cima principal","nombre":"Cap Gros del Montgó","cotatxt":752,"puerto_carretera":"No","municipio":"Xàbia/Jávea","provincia":"Alacant/Alicante","cota":"menosmil"}},
{"type":"Feature","geometry":{"type":"Point","coordinates":[-3.9147537605007763,39.57875257589959]},"properties":{"id":86,"clase":"Cima principal","nombre":"Vedado","cotatxt":1.067,"puerto_carretera":"No","municipio":"Los Yébenes","provincia":"Toledo","cota":"mil"}},
{"type":"Feature","geometry":{"type":"Point","coordinates":[-4.810086884913723,43.17403659574897]},"properties":{"id":87,"clase":"Cima principal","nombre":"Peña Vieja","cotatxt":2.614,"puerto_carretera":"No","municipio":"Camaleño","provincia":"Cantabria","cota":"dosmil"}},
{"type":"Feature","geometry":{"type":"Point","coordinates":[-0.6787101527468157,42.8845372565107]},"properties":{"id":88,"clase":"Cima principal","nombre":"Pic Lariste","cotatxt":2.164,"puerto_carretera":"No","municipio":"Ansó","provincia":"Huesca","cota":"dosmil"}},
{"type":"Feature","geometry":{"type":"Point","coordinates":[0.5541507400043549,42.568603938583884]},"properties":{"id":89,"clase":"Cima principal","nombre":"Pico Sarllé/Pico Cerler","cotatxt":2.409,"puerto_carretera":"No","municipio":"Benasque","provincia":"Huesca","cota":"dosmil"}},
{"type":"Feature","geometry":{"type":"Point","coordinates":[-5.99825363951762,40.54921251327259]},"properties":{"id":90,"clase":"Cima principal","nombre":"El Castillo","cotatxt":1.374,"puerto_carretera":"No","municipio":"Valero","provincia":"Salamanca","cota":"mil"}},
{"type":"Feature","geometry":{"type":"Point","coordinates":[-3.6351144468624588,36.89765181932086]},"properties":{"id":91,"clase":"Cima principal","nombre":"Cerro de la Albardilla","cotatxt":1.278,"puerto_carretera":"No","municipio":"Albuñuelas","provincia":"Granada","cota":"mil"}},
{"type":"Feature","geometry":{"type":"Point","coordinates":[2.9943847454262804,41.888781687784466]},"properties":{"id":92,"clase":"Cima principal","nombre":"Puig d'Arques","cotatxt":532,"puerto_carretera":"No","municipio":"Cruïlles, Monells i Sant Sadurní de l'Heura","provincia":"Girona","cota":"menosmil"}},
{"type":"Feature","geometry":{"type":"Point","coordinates":[-1.746786524213502,40.309695809614944]},"properties":{"id":93,"clase":"Cima principal","nombre":"La Cruceta","cotatxt":1.859,"puerto_carretera":"No","municipio":"Cuenca","provincia":"Cuenca","cota":"mil"}},
{"type":"Feature","geometry":{"type":"Point","coordinates":[-6.122362056664927,43.02381709057824]},"properties":{"id":94,"clase":"Cima principal","nombre":"Peña Orniz","cotatxt":2.191,"puerto_carretera":"No","municipio":"Cabrillanes","provincia":"León","cota":"dosmil"}},
{"type":"Feature","geometry":{"type":"Point","coordinates":[-15.600709479753915,27.888810319273134]},"properties":{"id":95,"clase":"Cima principal","nombre":"Montaña Negra","cotatxt":1.072,"puerto_carretera":"No","municipio":"San Bartolomé de Tirajana","provincia":"Las Palmas","cota":"mil"}},
{"type":"Feature","geometry":{"type":"Point","coordinates":[-1.5895782898307385,40.48348211921128]},"properties":{"id":96,"clase":"Cima principal","nombre":"Sierra Alta","cotatxt":1.853,"puerto_carretera":"No","municipio":"Albarracín","provincia":"Teruel","cota":"mil"}},
{"type":"Feature","geometry":{"type":"Point","coordinates":[-13.892212250340677,28.715144359213237]},"properties":{"id":97,"clase":"Cima principal","nombre":"Montaña de San Rafael","cotatxt":272,"puerto_carretera":"No","municipio":"La Oliva","provincia":"Las Palmas","cota":"menosmil"}},
{"type":"Feature","geometry":{"type":"Point","coordinates":[0.6543177082552936,41.924895946257045]},"properties":{"id":98,"clase":"Cima principal","nombre":"Tossal de les Euques","cotatxt":996,"puerto_carretera":"No","municipio":"Os de Balaguer","provincia":"Lleida","cota":"menosmil"}},
{"type":"Feature","geometry":{"type":"Point","coordinates":[-14.093623029712967,28.222397899486182]},"properties":{"id":99,"clase":"Cima principal","nombre":"Atalaya Caracol","cotatxt":467,"puerto_carretera":"No","municipio":"Tuineje","provincia":"Las Palmas","cota":"menosmil"}},
{"type":"Feature","geometry":{"type":"Point","coordinates":[2.486765857688658,39.633908256488326]},"properties":{"id":100,"clase":"Cima principal","nombre":"Puig de Galatzó","cotatxt":1.019,"puerto_carretera":"No","municipio":"Puigpunyent","provincia":"Illes Balears","cota":"mil"}},
{"type":"Feature","geometry":{"type":"Point","coordinates":[3.243678896901839,42.2814950867771]},"properties":{"id":101,"clase":"Cima principal","nombre":"El Pení","cotatxt":605,"puerto_carretera":"No","municipio":"Cadaqués","provincia":"Girona","cota":"menosmil"}},
{"type":"Feature","geometry":{"type":"Point","coordinates":[-4.389274204527036,43.04852778099404]},"properties":{"id":102,"clase":"Cima principal","nombre":"Pico Cornón","cotatxt":2.125,"puerto_carretera":"No","municipio":"Hermandad de Campoo de Suso","provincia":"Cantabria","cota":"dosmil"}},
{"type":"Feature","geometry":{"type":"Point","coordinates":[-15.770495320178734,27.93535018934345]},"properties":{"id":103,"clase":"Cima principal","nombre":"Montaña del Lechugal","cotatxt":994,"puerto_carretera":"No","municipio":"La Aldea de San Nicolás","provincia":"Las Palmas","cota":"menosmil"}},
{"type":"Feature","geometry":{"type":"Point","coordinates":[0.58743749215884,40.9407609520263]},"properties":{"id":104,"clase":"Cima principal","nombre":"La Creu de Santos","cotatxt":943,"puerto_carretera":"No","municipio":"Rasquera","provincia":"Tarragona","cota":"menosmil"}},
{"type":"Feature","geometry":{"type":"Point","coordinates":[-0.8576070463463705,42.839011690178424]},"properties":{"id":105,"clase":"Cima principal","nombre":"Itoleta/Punta del Trozo","cotatxt":1.769,"puerto_carretera":"No","municipio":"Isaba/Izaba","provincia":"Navarra","cota":"mil"}},
{"type":"Feature","geometry":{"type":"Point","coordinates":[-1.0139580229450869,38.496681221366444]},"properties":{"id":106,"clase":"Cima principal","nombre":"La Capilla/la Capella","cotatxt":1.238,"puerto_carretera":"No","municipio":"Yecla","provincia":"Murcia","cota":"mil"}},
{"type":"Feature","geometry":{"type":"Point","coordinates":[-0.2666320263279059,39.00907803197431]},"properties":{"id":107,"clase":"Cima principal","nombre":"el Mondúver","cotatxt":841,"puerto_carretera":"No","municipio":"Gandia","provincia":"València/Valencia","cota":"menosmil"}},
{"type":"Feature","geometry":{"type":"Point","coordinates":[-14.079355569552268,28.413064829666663]},"properties":{"id":108,"clase":"Cima principal","nombre":"Pico de la Atalaya","cotatxt":724,"puerto_carretera":"No","municipio":"Betancuria","provincia":"Las Palmas","cota":"menosmil"}},
{"type":"Feature","geometry":{"type":"Point","coordinates":[-5.208378538819479,36.48457797112483]},"properties":{"id":109,"clase":"Cima principal","nombre":"Los Reales/Pico de Los Reales","cotatxt":1.443,"puerto_carretera":"No","municipio":"Casares","provincia":"Málaga","cota":"mil"}},
{"type":"Feature","geometry":{"type":"Point","coordinates":[-4.6048671876513305,43.0539384006652]},"properties":{"id":110,"clase":"Cima principal","nombre":"Corona de las Colladillas","cotatxt":1.593,"puerto_carretera":"No","municipio":"Vega de Liébana","provincia":"Cantabria","cota":"mil"}},
{"type":"Feature","geometry":{"type":"Point","coordinates":[1.2758015392267843,38.913207972096444]},"properties":{"id":111,"clase":"Cima principal","nombre":"Talaia de Sant Josep","cotatxt":463,"puerto_carretera":"No","municipio":"Sant Josep de sa Talaia","provincia":"Illes Balears","cota":"menosmil"}},
{"type":"Feature","geometry":{"type":"Point","coordinates":[-4.4830291402137314,43.158104131665034]},"properties":{"id":112,"clase":"Cima principal","nombre":"Pico de la Traspeñuela","cotatxt":1.961,"puerto_carretera":"No","municipio":"Rionansa","provincia":"Cantabria","cota":"mil"}},
{"type":"Feature","geometry":{"type":"Point","coordinates":[-0.9197895046981855,42.956625881558466]},"properties":{"id":113,"clase":"Cima principal","nombre":"Otxogorri Gaña","cotatxt":1.916,"puerto_carretera":"No","municipio":"Uztárroz/Uztarroze","provincia":"Navarra","cota":"mil"}},
{"type":"Feature","geometry":{"type":"Point","coordinates":[-6.393781220413277,42.345943059519264]},"properties":{"id":114,"clase":"Cima principal","nombre":"Teleno","cotatxt":2.183,"puerto_carretera":"No","municipio":"Lucillo","provincia":"León","cota":"dosmil"}},
{"type":"Feature","geometry":{"type":"Point","coordinates":[-5.182485360729479,40.260084350744755]},"properties":{"id":115,"clase":"Cima principal","nombre":"La Mira","cotatxt":2.339,"puerto_carretera":"No","municipio":"El Hornillo","provincia":"Ávila","cota":"dosmil"}},
{"type":"Feature","geometry":{"type":"Point","coordinates":[-0.5828798698019101,42.34081239913545]},"properties":{"id":116,"clase":"Cima principal","nombre":"Cerro Puzos","cotatxt":1.547,"puerto_carretera":"No","municipio":"Loarre","provincia":"Huesca","cota":"mil"}},
{"type":"Feature","geometry":{"type":"Point","coordinates":[-2.825587403055258,40.18197837235265]},"properties":{"id":117,"clase":"Cima principal","nombre":"Altomira","cotatxt":1.183,"puerto_carretera":"No","municipio":"El Valle de Altomira","provincia":"Cuenca","cota":"mil"}},
{"type":"Feature","geometry":{"type":"Point","coordinates":[-4.1603366858733795,40.68967068119602]},"properties":{"id":118,"clase":"Cima principal","nombre":"Cabeza Líjar","cotatxt":1.821,"puerto_carretera":"No","municipio":"Guadarrama","provincia":"Madrid","cota":"mil"}},
{"type":"Feature","geometry":{"type":"Point","coordinates":[-3.1214092188516815,43.03986604355409]},"properties":{"id":119,"clase":"Cima principal","nombre":"Eskutxi","cotatxt":1.185,"puerto_carretera":"No","municipio":"Ayala/Aiara","provincia":"Araba/Álava","cota":"mil"}},
{"type":"Feature","geometry":{"type":"Point","coordinates":[0.3437401781783357,40.803347874999154]},"properties":{"id":120,"clase":"Cima principal","nombre":"Caro","cotatxt":1.445,"puerto_carretera":"No","municipio":"Roquetes","provincia":"Tarragona","cota":"mil"}},
{"type":"Feature","geometry":{"type":"Point","coordinates":[-1.0965216444142782,37.58347583594199]},"properties":{"id":121,"clase":"Cima principal","nombre":"La Muela","cotatxt":551,"puerto_carretera":"No","municipio":"Cartagena","provincia":"Murcia","cota":"menosmil"}},
{"type":"Feature","geometry":{"type":"Point","coordinates":[-5.619725652192799,40.20672443303227]},"properties":{"id":122,"clase":"Cima principal","nombre":"Cerro del Estecillo","cotatxt":2.259,"puerto_carretera":"No","municipio":"Guijo de Santa Bárbara","provincia":"Cáceres","cota":"dosmil"}},
{"type":"Feature","geometry":{"type":"Point","coordinates":[-1.042349570350438,42.690822690878484]},"properties":{"id":123,"clase":"Cima principal","nombre":"Alto de Borreguil","cotatxt":1.424,"puerto_carretera":"No","municipio":"Castillonuevo","provincia":"Navarra","cota":"mil"}},
{"type":"Feature","geometry":{"type":"Point","coordinates":[1.948891777657209,42.202769622674516]},"properties":{"id":124,"clase":"Cima principal","nombre":"el Pedró","cotatxt":1.759,"puerto_carretera":"No","municipio":"Castell de l'Areny","provincia":"Barcelona","cota":"mil"}},
{"type":"Feature","geometry":{"type":"Point","coordinates":[1.3968338176174713,42.66802847418202]},"properties":{"id":125,"clase":"Cima principal","nombre":"Pic de Verdaguer","cotatxt":3.129,"puerto_carretera":"No","municipio":"Alins","provincia":"Lleida","cota":"tresmil"}},
{"type":"Feature","geometry":{"type":"Point","coordinates":[-4.841065586625584,43.180755907343226]},"properties":{"id":126,"clase":"Cima principal","nombre":"Pico Tesorero/El Picu Tesoreru","cotatxt":2.564,"puerto_carretera":"No","municipio":"Camaleño","provincia":"Cantabria","cota":"dosmil"}},
{"type":"Feature","geometry":{"type":"Point","coordinates":[-4.603435191341755,40.208116345777746]},"properties":{"id":127,"clase":"Cima principal","nombre":"Cuchillar","cotatxt":1.061,"puerto_carretera":"No","municipio":"Higuera de las Dueñas","provincia":"Ávila","cota":"mil"}},
{"type":"Feature","geometry":{"type":"Point","coordinates":[-1.655603846070917,41.17121970125758]},"properties":{"id":128,"clase":"Cima principal","nombre":"Peñón/La Cruz","cotatxt":1.265,"puerto_carretera":"No","municipio":"Castejón de Alarba","provincia":"Zaragoza","cota":"mil"}},
{"type":"Feature","geometry":{"type":"Point","coordinates":[-3.8001867398549236,38.64766630932162]},"properties":{"id":129,"clase":"Cima principal","nombre":"Atalaya de la Calzada","cotatxt":1.118,"puerto_carretera":"No","municipio":"Calzada de Calatrava","provincia":"Ciudad Real","cota":"mil"}},
{"type":"Feature","geometry":{"type":"Point","coordinates":[-5.608017864179108,36.51009380876903]},"properties":{"id":130,"clase":"Cima principal","nombre":"Aljibe","cotatxt":1.089,"puerto_carretera":"No","municipio":"Alcalá de los Gazules","provincia":"Cádiz","cota":"mil"}},
{"type":"Feature","geometry":{"type":"Point","coordinates":[2.925693001999254,39.84319964105003]},"properties":{"id":131,"clase":"Cima principal","nombre":"Puig Tomir","cotatxt":1.104,"puerto_carretera":"No","municipio":"Escorca","provincia":"Illes Balears","cota":"mil"}},
{"type":"Feature","geometry":{"type":"Point","coordinates":[0.6424120573171173,42.639448621398444]},"properties":{"id":132,"clase":"Cima principal","nombre":"Punta de Astorg","cotatxt":3.354,"puerto_carretera":"No","municipio":"Benasque","provincia":"Huesca","cota":"tresmil"}},
{"type":"Feature","geometry":{"type":"Point","coordinates":[-3.255378849809613,41.10451190957403]},"properties":{"id":133,"clase":"Cima principal","nombre":"Ocejón","cotatxt":2.049,"puerto_carretera":"No","municipio":"Valverde de los Arroyos","provincia":"Guadalajara","cota":"dosmil"}},
{"type":"Feature","geometry":{"type":"Point","coordinates":[-6.587009030266831,40.270543349789065]},"properties":{"id":134,"clase":"Cima principal","nombre":"Picu Jañona","cotatxt":1.364,"puerto_carretera":"No","municipio":"Gata","provincia":"Cáceres","cota":"mil"}},
{"type":"Feature","geometry":{"type":"Point","coordinates":[-2.955396060075049,37.81168633921117]},"properties":{"id":135,"clase":"Cima principal","nombre":"Cabañas","cotatxt":2.028,"puerto_carretera":"No","municipio":"Pozo Alcón","provincia":"Jaén","cota":"dosmil"}},
{"type":"Feature","geometry":{"type":"Point","coordinates":[-6.159845780945973,40.48868929854648]},"properties":{"id":136,"clase":"Cima principal","nombre":"Alto de Leras","cotatxt":1.507,"puerto_carretera":"No","municipio":"La Alberca","provincia":"Salamanca","cota":"mil"}},
{"type":"Feature","geometry":{"type":"Point","coordinates":[-5.834350619750083,40.23757994224751]},"properties":{"id":137,"clase":"Cima principal","nombre":"Cerro del Moro","cotatxt":1.852,"puerto_carretera":"No","municipio":"Hervás","provincia":"Cáceres","cota":"mil"}},
{"type":"Feature","geometry":{"type":"Point","coordinates":[-6.82390788968556,42.234190329485365]},"properties":{"id":138,"clase":"Cima principal","nombre":"Alto de Turrieiro","cotatxt":1.877,"puerto_carretera":"No","municipio":"A Veiga","provincia":"Ourense","cota":"mil"}},
{"type":"Feature","geometry":{"type":"Point","coordinates":[-15.571196714499695,27.960848617828432]},"properties":{"id":139,"clase":"Cima principal","nombre":"Morro de la Agujerada","cotatxt":1.96,"puerto_carretera":"No","municipio":"San Bartolomé de Tirajana","provincia":"Las Palmas","cota":"mil"}},
{"type":"Feature","geometry":{"type":"Point","coordinates":[-1.6773164265253833,41.5126552370317]},"properties":{"id":140,"clase":"Cima principal","nombre":"Alto de la Cabrera/Estecillo","cotatxt":1.427,"puerto_carretera":"No","municipio":"Sestrica","provincia":"Zaragoza","cota":"mil"}},
{"type":"Feature","geometry":{"type":"Point","coordinates":[0.31416581724170733,42.06199912984077]},"properties":{"id":141,"clase":"Cima principal","nombre":"Pico Buñero/Munyero","cotatxt":1.109,"puerto_carretera":"No","municipio":"Estadilla","provincia":"Huesca","cota":"mil"}},
{"type":"Feature","geometry":{"type":"Point","coordinates":[0.6499452430514688,42.59025594971523]},"properties":{"id":142,"clase":"Cima principal","nombre":"Pico de Llauset","cotatxt":2.904,"puerto_carretera":"No","municipio":"Montanuy","provincia":"Huesca","cota":"dosmil"}},
{"type":"Feature","geometry":{"type":"Point","coordinates":[0.32662733399959176,40.90102327266091]},"properties":{"id":143,"clase":"Cima principal","nombre":"Roques de Benet","cotatxt":1.016,"puerto_carretera":"No","municipio":"Horta de Sant Joan","provincia":"Tarragona","cota":"mil"}},
{"type":"Feature","geometry":{"type":"Point","coordinates":[-2.478431725063813,38.387685969532434]},"properties":{"id":144,"clase":"Cima principal","nombre":"Cerro Pinilla","cotatxt":1.632,"puerto_carretera":"No","municipio":"Yeste","provincia":"Albacete","cota":"mil"}},
{"type":"Feature","geometry":{"type":"Point","coordinates":[-5.302298669297047,40.25678435755443]},"properties":{"id":145,"clase":"Cima principal","nombre":"Pico del Güetre","cotatxt":2.549,"puerto_carretera":"No","municipio":"Candeleda","provincia":"Ávila","cota":"dosmil"}},
{"type":"Feature","geometry":{"type":"Point","coordinates":[-6.198956734193911,43.116453154003054]},"properties":{"id":146,"clase":"Cima principal","nombre":"Peña Michu","cotatxt":1.763,"puerto_carretera":"No","municipio":"Teverga","provincia":"Asturias","cota":"mil"}},
{"type":"Feature","geometry":{"type":"Point","coordinates":[-2.8803512198546177,41.15392567923382]},"properties":{"id":147,"clase":"Cima principal","nombre":"Monte La Mota","cotatxt":1.408,"puerto_carretera":"No","municipio":"Atienza","provincia":"Guadalajara","cota":"mil"}},
{"type":"Feature","geometry":{"type":"Point","coordinates":[0.043461764561828674,42.669168131329016]},"properties":{"id":148,"clase":"Cima principal","nombre":"Pico d'Añisclo/Soum de Ramond","cotatxt":3.257,"puerto_carretera":"No","municipio":"Bielsa","provincia":"Huesca","cota":"tresmil"}},
{"type":"Feature","geometry":{"type":"Point","coordinates":[-0.6322213468501957,42.7953190189879]},"properties":{"id":149,"clase":"Cima principal","nombre":"Puntal de Secús Norte","cotatxt":2.442,"puerto_carretera":"No","municipio":"Aragüés del Puerto","provincia":"Huesca","cota":"dosmil"}},
{"type":"Feature","geometry":{"type":"Point","coordinates":[1.6103324666917362,41.79316653914681]},"properties":{"id":150,"clase":"Cima principal","nombre":"Goberna/Gorbea","cotatxt":918,"puerto_carretera":"No","municipio":"Sant Mateu de Bages","provincia":"Barcelona","cota":"menosmil"}},
{"type":"Feature","geometry":{"type":"Point","coordinates":[-0.30090136292669506,38.65605422391045]},"properties":{"id":151,"clase":"Cima principal","nombre":"Moleta d'Aitana","cotatxt":1.468,"puerto_carretera":"No","municipio":"Confrides","provincia":"Alacant/Alicante","cota":"mil"}},
{"type":"Feature","geometry":{"type":"Point","coordinates":[-6.3613852466776635,40.41578573169054]},"properties":{"id":152,"clase":"Cima principal","nombre":"Pico Solombrero","cotatxt":1.576,"puerto_carretera":"No","municipio":"Casares de las Hurdes","provincia":"Cáceres","cota":"mil"}},
{"type":"Feature","geometry":{"type":"Point","coordinates":[-7.548571539556265,43.47058465941123]},"properties":{"id":153,"clase":"Cima principal","nombre":"Monte do Pedrido","cotatxt":1.055,"puerto_carretera":"No","municipio":"O Valadouro","provincia":"Lugo","cota":"mil"}},
{"type":"Feature","geometry":{"type":"Point","coordinates":[-5.497657829180262,40.1984366214306]},"properties":{"id":154,"clase":"Cima principal","nombre":"Cabeza Pelada","cotatxt":2.248,"puerto_carretera":"No","municipio":"Talaveruela de la Vera","provincia":"Cáceres","cota":"dosmil"}},
{"type":"Feature","geometry":{"type":"Point","coordinates":[-13.731745900084249,29.034413009775097]},"properties":{"id":155,"clase":"Cima principal","nombre":"Caldera Blanca","cotatxt":459,"puerto_carretera":"No","municipio":"Tinajo","provincia":"Las Palmas","cota":"menosmil"}},
{"type":"Feature","geometry":{"type":"Point","coordinates":[-4.77394143930193,43.242938734952695]},"properties":{"id":156,"clase":"Cima principal","nombre":"Peña de Maín","cotatxt":1.386,"puerto_carretera":"No","municipio":"Cabrales","provincia":"Asturias","cota":"mil"}},
{"type":"Feature","geometry":{"type":"Point","coordinates":[-3.3115417800875626,37.053408909427326]},"properties":{"id":157,"clase":"Cima principal","nombre":"Mulhacén","cotatxt":3.479,"puerto_carretera":"No","municipio":"Güéjar Sierra","provincia":"Granada","cota":"tresmil"}},
{"type":"Feature","geometry":{"type":"Point","coordinates":[1.0147908950624265,42.56843921213577]},"properties":{"id":158,"clase":"Cima principal","nombre":"Gran Encantats","cotatxt":2.749,"puerto_carretera":"No","municipio":"Espot","provincia":"Lleida","cota":"dosmil"}},
{"type":"Feature","geometry":{"type":"Point","coordinates":[-3.405020219719711,37.039794459462364]},"properties":{"id":159,"clase":"Cima principal","nombre":"Tozal del Cartujo","cotatxt":3.152,"puerto_carretera":"No","municipio":"Dílar","provincia":"Granada","cota":"tresmil"}},
{"type":"Feature","geometry":{"type":"Point","coordinates":[-1.684788949926941,41.704530819637945]},"properties":{"id":160,"clase":"Cima principal","nombre":"La Tonda","cotatxt":1.497,"puerto_carretera":"No","municipio":"Talamantes","provincia":"Zaragoza","cota":"mil"}},
{"type":"Feature","geometry":{"type":"Point","coordinates":[1.1230848138909693,42.193577688131896]},"properties":{"id":161,"clase":"Cima principal","nombre":"Cap de Carreu","cotatxt":1.738,"puerto_carretera":"No","municipio":"Abella de la Conca","provincia":"Lleida","cota":"mil"}},
{"type":"Feature","geometry":{"type":"Point","coordinates":[-3.9329210049391796,40.79947804794176]},"properties":{"id":162,"clase":"Cima principal","nombre":"Cabeza de Hierro Mayor","cotatxt":2.378,"puerto_carretera":"No","municipio":"Rascafría","provincia":"Madrid","cota":"dosmil"}},
{"type":"Feature","geometry":{"type":"Point","coordinates":[2.8142067311623884,39.61919052004158]},"properties":{"id":163,"clase":"Cima principal","nombre":"Puig de Son Seguí","cotatxt":322,"puerto_carretera":"No","municipio":"Santa Eugènia","provincia":"Illes Balears","cota":"menosmil"}},
{"type":"Feature","geometry":{"type":"Point","coordinates":[-16.659837390417344,28.20098275977718]},"properties":{"id":164,"clase":"Cima principal","nombre":"Roque de los Almendros","cotatxt":2.524,"puerto_carretera":"No","municipio":"Vilaflor de Chasna","provincia":"Santa Cruz de Tenerife","cota":"dosmil"}},
{"type":"Feature","geometry":{"type":"Point","coordinates":[-2.9141353000116528,42.02254462968363]},"properties":{"id":165,"clase":"Cima principal","nombre":"Pico las Tres Provincias","cotatxt":2.049,"puerto_carretera":"No","municipio":"Duruelo de la Sierra","provincia":"Soria","cota":"dosmil"}},
{"type":"Feature","geometry":{"type":"Point","coordinates":[-0.8586314904862549,38.27793434086868]},"properties":{"id":166,"clase":"Cima principal","nombre":"La Vella","cotatxt":834,"puerto_carretera":"No","municipio":"Crevillent","provincia":"Alacant/Alicante","cota":"menosmil"}},
{"type":"Feature","geometry":{"type":"Point","coordinates":[3.3334471246289885,39.753411676582154]},"properties":{"id":167,"clase":"Cima principal","nombre":"Talaia Freda","cotatxt":560,"puerto_carretera":"No","municipio":"Artà","provincia":"Illes Balears","cota":"menosmil"}},
{"type":"Feature","geometry":{"type":"Point","coordinates":[-0.4899558497018767,40.63980338956824]},"properties":{"id":168,"clase":"Cima principal","nombre":"Muela Mujer","cotatxt":1.556,"puerto_carretera":"No","municipio":"Villarluengo","provincia":"Teruel","cota":"mil"}},
{"type":"Feature","geometry":{"type":"Point","coordinates":[0.6578187600228094,41.92027626523275]},"properties":{"id":169,"clase":"Cima principal","nombre":"Montessor","cotatxt":1.034,"puerto_carretera":"No","municipio":"Os de Balaguer","provincia":"Lleida","cota":"mil"}},
{"type":"Feature","geometry":{"type":"Point","coordinates":[-3.5051830835681113,42.09102051904441]},"properties":{"id":170,"clase":"Cima principal","nombre":"Mambla de la Muela","cotatxt":1.376,"puerto_carretera":"No","municipio":"Covarrubias","provincia":"Burgos","cota":"mil"}},
{"type":"Feature","geometry":{"type":"Point","coordinates":[-0.2463912743810137,38.64971391567286]},"properties":{"id":171,"clase":"Cima principal","nombre":"La Penya Alta","cotatxt":1.505,"puerto_carretera":"No","municipio":"Benifato","provincia":"Alacant/Alicante","cota":"mil"}},
{"type":"Feature","geometry":{"type":"Point","coordinates":[2.29625688707736,41.74753964944449]},"properties":{"id":172,"clase":"Cima principal","nombre":"Turó de Tagament","cotatxt":1.059,"puerto_carretera":"No","municipio":"Tagamanent","provincia":"Barcelona","cota":"mil"}},
{"type":"Feature","geometry":{"type":"Point","coordinates":[0.17036437433241713,40.73287961357687]},"properties":{"id":173,"clase":"Cima principal","nombre":"Tossal del Rei/Tossal dels Tres Reis","cotatxt":1.351,"puerto_carretera":"No","municipio":"Valderrobres","provincia":"Teruel","cota":"mil"}},
{"type":"Feature","geometry":{"type":"Point","coordinates":[-6.335236729654654,42.83041757947461]},"properties":{"id":174,"clase":"Cima principal","nombre":"Valdeiglesias","cotatxt":2.136,"puerto_carretera":"No","municipio":"Palacios del Sil","provincia":"León","cota":"dosmil"}},
{"type":"Feature","geometry":{"type":"Point","coordinates":[-4.002250452504953,43.04629656177593]},"properties":{"id":175,"clase":"Cima principal","nombre":"Pico Otero","cotatxt":1.251,"puerto_carretera":"No","municipio":"San Miguel de Aguayo","provincia":"Cantabria","cota":"mil"}},
{"type":"Feature","geometry":{"type":"Point","coordinates":[-1.9060584376372438,43.14496598782014]},"properties":{"id":176,"clase":"Cima principal","nombre":"Mandoegi/Auntzbizkarreko Dorrea","cotatxt":1.046,"puerto_carretera":"No","municipio":"Goizueta","provincia":"Navarra","cota":"mil"}},
{"type":"Feature","geometry":{"type":"Point","coordinates":[-0.08069273705790736,42.67683496957936]},"properties":{"id":177,"clase":"Cima principal","nombre":"Pico Mondarruego","cotatxt":2.845,"puerto_carretera":"No","municipio":"Fanlo","provincia":"Huesca","cota":"dosmil"}},
{"type":"Feature","geometry":{"type":"Point","coordinates":[-4.8710108134339745,39.56489825064996]},"properties":{"id":178,"clase":"Cima principal","nombre":"Atalayón","cotatxt":1.293,"puerto_carretera":"No","municipio":"Robledo del Mazo","provincia":"Toledo","cota":"mil"}},
{"type":"Feature","geometry":{"type":"Point","coordinates":[-6.40979376042128,42.542932339497526]},"properties":{"id":179,"clase":"Cima principal","nombre":"Pico del Redondal","cotatxt":1.565,"puerto_carretera":"No","municipio":"Molinaseca","provincia":"León","cota":"mil"}},
{"type":"Feature","geometry":{"type":"Point","coordinates":[0.9793127458914659,42.5549276114566]},"properties":{"id":180,"clase":"Cima principal","nombre":"Pic de Subenuix","cotatxt":2.949,"puerto_carretera":"No","municipio":"La Torre de Cabdella","provincia":"Lleida","cota":"dosmil"}},
{"type":"Feature","geometry":{"type":"Point","coordinates":[-6.321979849934102,42.801441879771566]},"properties":{"id":181,"clase":"Cima principal","nombre":"Catoute","cotatxt":2.112,"puerto_carretera":"No","municipio":"Igüeña","provincia":"León","cota":"dosmil"}},
{"type":"Feature","geometry":{"type":"Point","coordinates":[-2.528097316961551,38.0244571488984]},"properties":{"id":182,"clase":"Cima principal","nombre":"Guillimona","cotatxt":2.063,"puerto_carretera":"No","municipio":"Puebla de Don Fadrique","provincia":"Granada","cota":"dosmil"}},
{"type":"Feature","geometry":{"type":"Point","coordinates":[-4.893215201743559,43.26887696647548]},"properties":{"id":183,"clase":"Cima principal","nombre":"Cabezo Llerosu","cotatxt":1.793,"puerto_carretera":"No","municipio":"Cabrales","provincia":"Asturias","cota":"mil"}},
{"type":"Feature","geometry":{"type":"Point","coordinates":[-4.82970591824235,43.17882025124465]},"properties":{"id":184,"clase":"Cima principal","nombre":"Torre de los Horcados Rojos/Torre de los Jorcáos Rojos","cotatxt":2.503,"puerto_carretera":"No","municipio":"Camaleño","provincia":"Cantabria","cota":"dosmil"}},
{"type":"Feature","geometry":{"type":"Point","coordinates":[-3.446374307554622,41.18060386250847]},"properties":{"id":185,"clase":"Cima principal","nombre":"Torre del Rayo","cotatxt":2.089,"puerto_carretera":"No","municipio":"El Cardoso de la Sierra","provincia":"Guadalajara","cota":"dosmil"}},
{"type":"Feature","geometry":{"type":"Point","coordinates":[-1.0335986400950417,40.08137723929729]},"properties":{"id":186,"clase":"Cima principal","nombre":"Cerro Cavero","cotatxt":1.985,"puerto_carretera":"No","municipio":"Arcos de las Salinas","provincia":"Teruel","cota":"mil"}},
{"type":"Feature","geometry":{"type":"Point","coordinates":[-1.3261650699979781,38.84718922977908]},"properties":{"id":187,"clase":"Cima principal","nombre":"Cerro Chinar","cotatxt":1.087,"puerto_carretera":"No","municipio":"Bonete","provincia":"Albacete","cota":"mil"}},
{"type":"Feature","geometry":{"type":"Point","coordinates":[0.7415710744967472,42.69073880786215]},"properties":{"id":188,"clase":"Cima principal","nombre":"Montpius","cotatxt":2.274,"puerto_carretera":"No","municipio":"Vielha e Mijaran","provincia":"Lleida","cota":"dosmil"}},
{"type":"Feature","geometry":{"type":"Point","coordinates":[0.034389918357677275,42.67554120825151]},"properties":{"id":189,"clase":"Cima principal","nombre":"Monte Perdido/Punta de Treserols","cotatxt":3.349,"puerto_carretera":"No","municipio":"Bielsa","provincia":"Huesca","cota":"tresmil"}},
{"type":"Feature","geometry":{"type":"Point","coordinates":[-4.796194790286113,42.94460172974587]},"properties":{"id":190,"clase":"Cima principal","nombre":"Espigüete","cotatxt":2.451,"puerto_carretera":"No","municipio":"Velilla del Río Carrión","provincia":"Palencia","cota":"dosmil"}},
{"type":"Feature","geometry":{"type":"Point","coordinates":[-6.115782139753901,43.23512498978581]},"properties":{"id":191,"clase":"Cima principal","nombre":"Pico Caldoveiro","cotatxt":1.354,"puerto_carretera":"No","municipio":"Yernes y Tameza","provincia":"Asturias","cota":"mil"}},
{"type":"Feature","geometry":{"type":"Point","coordinates":[0.8909035182722166,42.57470152852431]},"properties":{"id":192,"clase":"Cima principal","nombre":"Pic de la Pala Alta de Sarradé","cotatxt":2.987,"puerto_carretera":"No","municipio":"La Vall de Boí","provincia":"Lleida","cota":"dosmil"}},
{"type":"Feature","geometry":{"type":"Point","coordinates":[-4.1905246895738335,39.5717621893801]},"properties":{"id":193,"clase":"Cima principal","nombre":"Risco del Águila","cotatxt":1.318,"puerto_carretera":"No","municipio":"Las Ventas con Peña Aguilera","provincia":"Toledo","cota":"mil"}},
{"type":"Feature","geometry":{"type":"Point","coordinates":[-0.6705522525127462,42.79798761961165]},"properties":{"id":194,"clase":"Cima principal","nombre":"Pico Agüerri","cotatxt":2.434,"puerto_carretera":"No","municipio":"Valle de Hecho","provincia":"Huesca","cota":"dosmil"}},
{"type":"Feature","geometry":{"type":"Point","coordinates":[-1.4789529652605022,43.090895311872266]},"properties":{"id":195,"clase":"Cima principal","nombre":"Albako Harria/Peña de Alba","cotatxt":1.07,"puerto_carretera":"No","municipio":"Baztan","provincia":"Navarra","cota":"mil"}},
{"type":"Feature","geometry":{"type":"Point","coordinates":[-2.6262682160747564,38.10280296320305]},"properties":{"id":196,"clase":"Cima principal","nombre":"Almorchón","cotatxt":1.914,"puerto_carretera":"No","municipio":"Santiago-Pontones","provincia":"Jaén","cota":"mil"}},
{"type":"Feature","geometry":{"type":"Point","coordinates":[0.7851588295738212,41.01617465784499]},"properties":{"id":197,"clase":"Cima principal","nombre":"Mola de Genessies","cotatxt":704,"puerto_carretera":"No","municipio":"Vandellòs i l'Hospitalet de l'Infant","provincia":"Tarragona","cota":"menosmil"}},
{"type":"Feature","geometry":{"type":"Point","coordinates":[0.8987063063896559,42.38409347141822]},"properties":{"id":198,"clase":"Cima principal","nombre":"Pui de Far","cotatxt":1.621,"puerto_carretera":"No","municipio":"Sarroca de Bellera","provincia":"Lleida","cota":"mil"}},
{"type":"Feature","geometry":{"type":"Point","coordinates":[-3.32836184984049,41.16517071970108]},"properties":{"id":199,"clase":"Cima principal","nombre":"Pico de los Zapateros","cotatxt":1.763,"puerto_carretera":"No","municipio":"Majaelrayo","provincia":"Guadalajara","cota":"mil"}},
{"type":"Feature","geometry":{"type":"Point","coordinates":[-0.29026669157162244,42.838939982849546]},"properties":{"id":200,"clase":"Cima principal","nombre":"Pico Moros/Balaitús/Balaitous","cotatxt":3.144,"puerto_carretera":"No","municipio":"Sallent de Gállego","provincia":"","cota":"tresmil"}},
{"type":"Feature","geometry":{"type":"Point","coordinates":[-4.730068932652851,43.02388532822489]},"properties":{"id":201,"clase":"Cima principal","nombre":"Peña Prieta","cotatxt":2.539,"puerto_carretera":"No","municipio":"Vega de Liébana","provincia":"Cantabria","cota":"dosmil"}},
{"type":"Feature","geometry":{"type":"Point","coordinates":[0.8753720629297795,42.63327526079263]},"properties":{"id":202,"clase":"Cima principal","nombre":"Montardo","cotatxt":2.837,"puerto_carretera":"No","municipio":"Naut Aran","provincia":"Lleida","cota":"dosmil"}},
{"type":"Feature","geometry":{"type":"Point","coordinates":[-1.9107624808939065,37.53783899748814]},"properties":{"id":203,"clase":"Cima principal","nombre":"Cabezo de la Jara","cotatxt":1.245,"puerto_carretera":"No","municipio":"Huércal-Overa","provincia":"Almería","cota":"mil"}},
{"type":"Feature","geometry":{"type":"Point","coordinates":[-2.1466727299694015,42.16286987946288]},"properties":{"id":204,"clase":"Cima principal","nombre":"Peña Isasa","cotatxt":1.471,"puerto_carretera":"No","municipio":"Préjano","provincia":"La Rioja","cota":"mil"}},
{"type":"Feature","geometry":{"type":"Point","coordinates":[-0.4653846467570412,42.67859390296868]},"properties":{"id":205,"clase":"Cima principal","nombre":"Punta de la Espata/Punta Tabletas","cotatxt":2.193,"puerto_carretera":"No","municipio":"Jaca","provincia":"Huesca","cota":"dosmil"}},
{"type":"Feature","geometry":{"type":"Point","coordinates":[-4.876852949392077,39.19567215634429]},"properties":{"id":206,"clase":"Cima principal","nombre":"Cantos Negros","cotatxt":867,"puerto_carretera":"No","municipio":"Fuenlabrada de los Montes","provincia":"Badajoz","cota":"menosmil"}},
{"type":"Feature","geometry":{"type":"Point","coordinates":[-1.2965136102537969,42.80978923965976]},"properties":{"id":207,"clase":"Cima principal","nombre":"Zarikieta","cotatxt":1.05,"puerto_carretera":"No","municipio":"Lónguida/Longida","provincia":"Navarra","cota":"mil"}},
{"type":"Feature","geometry":{"type":"Point","coordinates":[-1.3413133399728256,41.250537099539606]},"properties":{"id":208,"clase":"Cima principal","nombre":"Pico de Langa","cotatxt":1.302,"puerto_carretera":"No","municipio":"Torralbilla","provincia":"Zaragoza","cota":"mil"}},
{"type":"Feature","geometry":{"type":"Point","coordinates":[-5.710395054541597,43.048904362176806]},"properties":{"id":209,"clase":"Cima principal","nombre":"Llagüezos","cotatxt":1.678,"puerto_carretera":"No","municipio":"Villamanín","provincia":"León","cota":"mil"}},
{"type":"Feature","geometry":{"type":"Point","coordinates":[0.6414336994462233,42.639551866508235]},"properties":{"id":210,"clase":"Cima principal","nombre":"Pico Maldito","cotatxt":3.354,"puerto_carretera":"No","municipio":"Benasque","provincia":"Huesca","cota":"tresmil"}},
{"type":"Feature","geometry":{"type":"Point","coordinates":[-3.1242236199756013,41.16878940915207]},"properties":{"id":211,"clase":"Cima principal","nombre":"Mojón Cimero","cotatxt":1.822,"puerto_carretera":"No","municipio":"Condemios de Arriba","provincia":"Guadalajara","cota":"mil"}},
{"type":"Feature","geometry":{"type":"Point","coordinates":[-4.138377340007005,39.5663236593617]},"properties":{"id":212,"clase":"Cima principal","nombre":"Risco de la Gineta","cotatxt":1.306,"puerto_carretera":"No","municipio":"Mazarambroz","provincia":"Toledo","cota":"mil"}},
{"type":"Feature","geometry":{"type":"Point","coordinates":[-4.856931279932431,43.17324775926313]},"properties":{"id":213,"clase":"Cima principal","nombre":"Torre de Llambrión","cotatxt":2.642,"puerto_carretera":"No","municipio":"Posada de Valdeón","provincia":"León","cota":"dosmil"}},
{"type":"Feature","geometry":{"type":"Point","coordinates":[-0.7113062298052082,42.525094789562274]},"properties":{"id":214,"clase":"Cima principal","nombre":"Monte Cuculo","cotatxt":1.549,"puerto_carretera":"No","municipio":"Santa Cruz de la Serós","provincia":"Huesca","cota":"mil"}},
{"type":"Feature","geometry":{"type":"Point","coordinates":[-4.865715633804599,43.150851108765686]},"properties":{"id":215,"clase":"Cima principal","nombre":"Torre de Liordes","cotatxt":2.477,"puerto_carretera":"No","municipio":"Posada de Valdeón","provincia":"León","cota":"dosmil"}},
{"type":"Feature","geometry":{"type":"Point","coordinates":[1.702940221421255,42.23988601056726]},"properties":{"id":216,"clase":"Cima principal","nombre":"Pollegó Superior","cotatxt":2.509,"puerto_carretera":"No","municipio":"Gósol","provincia":"Lleida","cota":"dosmil"}},
{"type":"Feature","geometry":{"type":"Point","coordinates":[-2.6772295828540487,37.21609079884469]},"properties":{"id":217,"clase":"Cima principal","nombre":"Dos Picos","cotatxt":2.094,"puerto_carretera":"No","municipio":"Nacimiento","provincia":"Almería","cota":"dosmil"}},
{"type":"Feature","geometry":{"type":"Point","coordinates":[-4.924551110443317,38.21211732912748]},"properties":{"id":218,"clase":"Cima principal","nombre":"Sierra Chimorra","cotatxt":957,"puerto_carretera":"No","municipio":"Alcaracejos","provincia":"Córdoba","cota":"menosmil"}},
{"type":"Feature","geometry":{"type":"Point","coordinates":[-2.3913858903142375,38.0605101192357]},"properties":{"id":219,"clase":"Cima principal","nombre":"La Atalaya","cotatxt":2.083,"puerto_carretera":"No","municipio":"Nerpio","provincia":"Albacete","cota":"dosmil"}},
{"type":"Feature","geometry":{"type":"Point","coordinates":[-1.7181068897914555,40.84565123940663]},"properties":{"id":220,"clase":"Cima principal","nombre":"Lituero","cotatxt":1.456,"puerto_carretera":"No","municipio":"Campillo de Dueñas","provincia":"Guadalajara","cota":"mil"}},
{"type":"Feature","geometry":{"type":"Point","coordinates":[-4.717995889644635,40.14635265964147]},"properties":{"id":221,"clase":"Cima principal","nombre":"Monte Peladas","cotatxt":1.331,"puerto_carretera":"No","municipio":"El Real de San Vicente","provincia":"Toledo","cota":"mil"}},
{"type":"Feature","geometry":{"type":"Point","coordinates":[-6.8088082500086164,42.198114169502254]},"properties":{"id":222,"clase":"Cima principal","nombre":"Moncalvo","cotatxt":2.046,"puerto_carretera":"No","municipio":"Porto","provincia":"Zamora","cota":"dosmil"}},
{"type":"Feature","geometry":{"type":"Point","coordinates":[-1.816207403207218,37.64066132309771]},"properties":{"id":223,"clase":"Cima principal","nombre":"Alto de la Jarosa","cotatxt":929,"puerto_carretera":"No","municipio":"Lorca","provincia":"Murcia","cota":"menosmil"}},
{"type":"Feature","geometry":{"type":"Point","coordinates":[-5.650376360129809,43.044419999629575]},"properties":{"id":224,"clase":"Cima principal","nombre":"Estorbín","cotatxt":2.124,"puerto_carretera":"No","municipio":"Aller","provincia":"Asturias","cota":"dosmil"}},
{"type":"Feature","geometry":{"type":"Point","coordinates":[-0.737209009987317,42.89143749952383]},"properties":{"id":225,"clase":"Cima principal","nombre":"Mallo de Acherito","cotatxt":2.375,"puerto_carretera":"No","municipio":"Ansó","provincia":"Huesca","cota":"dosmil"}},
{"type":"Feature","geometry":{"type":"Point","coordinates":[-4.158204934296817,40.788428100710995]},"properties":{"id":226,"clase":"Cima principal","nombre":"Cerro Carmocho","cotatxt":1.965,"puerto_carretera":"No","municipio":"Otero de Herreros","provincia":"Segovia","cota":"mil"}},
{"type":"Feature","geometry":{"type":"Point","coordinates":[0.33623345501561414,42.70865136418303]},"properties":{"id":227,"clase":"Cima principal","nombre":"Punta Culfreda Sur","cotatxt":3.034,"puerto_carretera":"No","municipio":"Gistaín","provincia":"Huesca","cota":"tresmil"}},
{"type":"Feature","geometry":{"type":"Point","coordinates":[-0.19265672836957634,38.59722848222056]},"properties":{"id":228,"clase":"Cima principal","nombre":"El Puig Campana","cotatxt":1.408,"puerto_carretera":"No","municipio":"Finestrat","provincia":"Alacant/Alicante","cota":"mil"}},
{"type":"Feature","geometry":{"type":"Point","coordinates":[2.4883728547987216,42.187106866955276]},"properties":{"id":229,"clase":"Cima principal","nombre":"Volcà del Montsacopa","cotatxt":533,"puerto_carretera":"No","municipio":"Olot","provincia":"Girona","cota":"menosmil"}},
{"type":"Feature","geometry":{"type":"Point","coordinates":[0.9330353036997086,42.76782247558376]},"properties":{"id":230,"clase":"Cima principal","nombre":"Tuc de Parros","cotatxt":2.729,"puerto_carretera":"No","municipio":"Naut Aran","provincia":"Lleida","cota":"dosmil"}},
{"type":"Feature","geometry":{"type":"Point","coordinates":[-4.280800659472617,43.18065081100446]},"properties":{"id":231,"clase":"Cima principal","nombre":"Pico del Cueto","cotatxt":840,"puerto_carretera":"No","municipio":"Cabuérniga","provincia":"Cantabria","cota":"menosmil"}},
{"type":"Feature","geometry":{"type":"Point","coordinates":[1.7269103652027733,42.4529319472682]},"properties":{"id":232,"clase":"Cima principal","nombre":"La Carbassa","cotatxt":2.735,"puerto_carretera":"No","municipio":"Bellver de Cerdanya","provincia":"Lleida","cota":"dosmil"}},
{"type":"Feature","geometry":{"type":"Point","coordinates":[-2.780796350163561,38.20807688934983]},"properties":{"id":233,"clase":"Cima principal","nombre":"Cerro Peguera","cotatxt":1.329,"puerto_carretera":"No","municipio":"Hornos","provincia":"Jaén","cota":"mil"}},
{"type":"Feature","geometry":{"type":"Point","coordinates":[-2.2848770353463403,42.07020524746618]},"properties":{"id":234,"clase":"Cima principal","nombre":"Cerro Ayedo","cotatxt":1.721,"puerto_carretera":"No","municipio":"San Pedro Manrique","provincia":"Soria","cota":"mil"}},
{"type":"Feature","geometry":{"type":"Point","coordinates":[-1.5753029604281652,37.860255829408246]},"properties":{"id":235,"clase":"Cima principal","nombre":"El Morrón","cotatxt":1.514,"puerto_carretera":"No","municipio":"Totana","provincia":"Murcia","cota":"mil"}},
{"type":"Feature","geometry":{"type":"Point","coordinates":[-0.41595306868578114,42.69794053596076]},"properties":{"id":236,"clase":"Cima principal","nombre":"Peña Retona","cotatxt":2.745,"puerto_carretera":"No","municipio":"Sabiñánigo","provincia":"Huesca","cota":"dosmil"}},
{"type":"Feature","geometry":{"type":"Point","coordinates":[-5.30950145646655,38.248724189691686]},"properties":{"id":237,"clase":"Cima principal","nombre":"Cerro Maleto","cotatxt":878,"puerto_carretera":"No","municipio":"Fuente Obejuna","provincia":"Córdoba","cota":"menosmil"}},
{"type":"Feature","geometry":{"type":"Point","coordinates":[0.5302906892524817,40.6136351766922]},"properties":{"id":238,"clase":"Cima principal","nombre":"Torreta de Montsià","cotatxt":762,"puerto_carretera":"No","municipio":"Ulldecona","provincia":"Tarragona","cota":"menosmil"}},
{"type":"Feature","geometry":{"type":"Point","coordinates":[-4.440600590043916,39.54792952980772]},"properties":{"id":239,"clase":"Cima principal","nombre":"Risco de Alanillas Altas","cotatxt":1.443,"puerto_carretera":"No","municipio":"Menasalbas","provincia":"Toledo","cota":"mil"}},
{"type":"Feature","geometry":{"type":"Point","coordinates":[-3.8152330456551278,36.84185390858766]},"properties":{"id":240,"clase":"Cima principal","nombre":"Pico de Navachica","cotatxt":1.831,"puerto_carretera":"No","municipio":"Cómpeta","provincia":"Málaga","cota":"mil"}},
{"type":"Feature","geometry":{"type":"Point","coordinates":[-6.758832309943178,42.2389794391364]},"properties":{"id":241,"clase":"Cima principal","nombre":"Peña Vidulante","cotatxt":2.053,"puerto_carretera":"No","municipio":"Encinedo","provincia":"León","cota":"dosmil"}},
{"type":"Feature","geometry":{"type":"Point","coordinates":[-3.7750458397299034,37.630320964817884]},"properties":{"id":242,"clase":"Cima principal","nombre":"Alto de la Pandera","cotatxt":1.87,"puerto_carretera":"No","municipio":"Valdepeñas de Jaén","provincia":"Jaén","cota":"mil"}},
{"type":"Feature","geometry":{"type":"Point","coordinates":[-3.1942439402667953,42.73451125927754]},"properties":{"id":243,"clase":"Cima principal","nombre":"La Cotorra","cotatxt":1.437,"puerto_carretera":"No","municipio":"Partido de la Sierra en Tobalina","provincia":"Burgos","cota":"mil"}},
{"type":"Feature","geometry":{"type":"Point","coordinates":[-2.3928954687250044,42.31525315575049]},"properties":{"id":244,"clase":"Cima principal","nombre":"Pico Monje","cotatxt":1.152,"puerto_carretera":"No","municipio":"Lagunilla del Jubera","provincia":"La Rioja","cota":"mil"}},
{"type":"Feature","geometry":{"type":"Point","coordinates":[-2.20569701900608,40.2169240834607]},"properties":{"id":245,"clase":"Cima principal","nombre":"Losares","cotatxt":1.389,"puerto_carretera":"No","municipio":"Sotorribas","provincia":"Cuenca","cota":"mil"}},
{"type":"Feature","geometry":{"type":"Point","coordinates":[-15.64175254029472,27.99153921971753]},"properties":{"id":246,"clase":"Cima principal","nombre":"Roque Bentayga","cotatxt":1.413,"puerto_carretera":"No","municipio":"Tejeda","provincia":"Las Palmas","cota":"mil"}},
{"type":"Feature","geometry":{"type":"Point","coordinates":[-5.619606454737738,38.526830709063525]},"properties":{"id":247,"clase":"Cima principal","nombre":"Santa Inés","cotatxt":841,"puerto_carretera":"No","municipio":"Peraleda del Zaucejo","provincia":"Badajoz","cota":"menosmil"}},
{"type":"Feature","geometry":{"type":"Point","coordinates":[-2.638420217403183,41.796456558846515]},"properties":{"id":248,"clase":"Cima principal","nombre":"El Peñón","cotatxt":1.446,"puerto_carretera":"No","municipio":"Cidones","provincia":"Soria","cota":"mil"}},
{"type":"Feature","geometry":{"type":"Point","coordinates":[-4.50245464049755,43.16688257328747]},"properties":{"id":249,"clase":"Cima principal","nombre":"Pico Paraes","cotatxt":1.936,"puerto_carretera":"No","municipio":"Lamasón","provincia":"Cantabria","cota":"mil"}},
{"type":"Feature","geometry":{"type":"Point","coordinates":[-0.7461708808411097,42.821133020641625]},"properties":{"id":250,"clase":"Cima principal","nombre":"Cerro de Lenito","cotatxt":2.339,"puerto_carretera":"No","municipio":"Valle de Hecho","provincia":"Huesca","cota":"dosmil"}},
{"type":"Feature","geometry":{"type":"Point","coordinates":[0.023860667894479246,42.684791287809]},"properties":{"id":251,"clase":"Cima principal","nombre":"Cilindro de Marboré","cotatxt":3.325,"puerto_carretera":"No","municipio":"Bielsa","provincia":"Huesca","cota":"tresmil"}},
{"type":"Feature","geometry":{"type":"Point","coordinates":[2.581946853617542,42.11465258846396]},"properties":{"id":252,"clase":"Cima principal","nombre":"Puigsallança","cotatxt":1.027,"puerto_carretera":"No","municipio":"Sant Aniol de Finestres","provincia":"Girona","cota":"mil"}},
{"type":"Feature","geometry":{"type":"Point","coordinates":[-5.935540220238994,42.21631538930271]},"properties":{"id":253,"clase":"Cima principal","nombre":"Casas Viejas","cotatxt":995,"puerto_carretera":"No","municipio":"Castrocalbón","provincia":"León","cota":"menosmil"}},
{"type":"Feature","geometry":{"type":"Point","coordinates":[-4.898552359646165,40.48239324918919]},"properties":{"id":254,"clase":"Cima principal","nombre":"Alto de la Hoya","cotatxt":2.134,"puerto_carretera":"No","municipio":"Sotalbo","provincia":"Ávila","cota":"dosmil"}},
{"type":"Feature","geometry":{"type":"Point","coordinates":[-5.939657209965885,43.012830219347386]},"properties":{"id":255,"clase":"Cima principal","nombre":"Peña Cerreos","cotatxt":2.111,"puerto_carretera":"No","municipio":"San Emiliano","provincia":"León","cota":"dosmil"}},
{"type":"Feature","geometry":{"type":"Point","coordinates":[-4.964217289910496,36.68049086924281]},"properties":{"id":256,"clase":"Cima principal","nombre":"Cerro Corona","cotatxt":1.295,"puerto_carretera":"No","municipio":"Tolox","provincia":"Málaga","cota":"mil"}},
{"type":"Feature","geometry":{"type":"Point","coordinates":[2.2896527408064884,42.16551962835111]},"properties":{"id":257,"clase":"Cima principal","nombre":"Milany","cotatxt":1.525,"puerto_carretera":"No","municipio":"Vidrà","provincia":"Girona","cota":"mil"}},
{"type":"Feature","geometry":{"type":"Point","coordinates":[0.4776988047740232,42.699983553567364]},"properties":{"id":258,"clase":"Cima principal","nombre":"Tuca de Gorgs Bllancs/Pic des Gourgs Blancs","cotatxt":3.128,"puerto_carretera":"No","municipio":"Benasque","provincia":"Huesca","cota":"tresmil"}},
{"type":"Feature","geometry":{"type":"Point","coordinates":[-1.1657693363060457,43.017981659486445]},"properties":{"id":259,"clase":"Cima principal","nombre":"Mendizar/Mendi-zar","cotatxt":1.319,"puerto_carretera":"No","municipio":"Orbaizeta","provincia":"Navarra","cota":"mil"}},
{"type":"Feature","geometry":{"type":"Point","coordinates":[-1.1640136311855056,38.42770058536246]},"properties":{"id":260,"clase":"Cima principal","nombre":"La Madama","cotatxt":1.371,"puerto_carretera":"No","municipio":"Jumilla","provincia":"Murcia","cota":"mil"}},
{"type":"Feature","geometry":{"type":"Point","coordinates":[-0.6021116780391343,42.820161232945935]},"properties":{"id":261,"clase":"Cima principal","nombre":"Pico de Acué","cotatxt":2.258,"puerto_carretera":"No","municipio":"","provincia":"","cota":"dosmil"}},
{"type":"Feature","geometry":{"type":"Point","coordinates":[-2.8285792196511306,41.27347524956886]},"properties":{"id":262,"clase":"Cima principal","nombre":"La Atalaya","cotatxt":1.262,"puerto_carretera":"No","municipio":"Barcones","provincia":"Soria","cota":"mil"}},
{"type":"Feature","geometry":{"type":"Point","coordinates":[-6.741802561724876,40.15154123782578]},"properties":{"id":263,"clase":"Cima principal","nombre":"Cerro de Paso Malo","cotatxt":859,"puerto_carretera":"No","municipio":"Villamiel","provincia":"Cáceres","cota":"menosmil"}},
{"type":"Feature","geometry":{"type":"Point","coordinates":[-6.646063040064712,42.28751140970518]},"properties":{"id":264,"clase":"Cima principal","nombre":"Peña de Forna","cotatxt":1.555,"puerto_carretera":"No","municipio":"Encinedo","provincia":"León","cota":"mil"}},
{"type":"Feature","geometry":{"type":"Point","coordinates":[1.0120275640607606,42.54050065112254]},"properties":{"id":265,"clase":"Cima principal","nombre":"Pic de Peguera","cotatxt":2.984,"puerto_carretera":"No","municipio":"Espot","provincia":"Lleida","cota":"dosmil"}},
{"type":"Feature","geometry":{"type":"Point","coordinates":[-6.534040267492404,42.896251482092]},"properties":{"id":266,"clase":"Cima principal","nombre":"El Miró","cotatxt":1.983,"puerto_carretera":"No","municipio":"Páramo del Sil","provincia":"León","cota":"mil"}},
{"type":"Feature","geometry":{"type":"Point","coordinates":[1.260242824507025,42.30146482271787]},"properties":{"id":267,"clase":"Cima principal","nombre":"Montcau","cotatxt":1.795,"puerto_carretera":"No","municipio":"Les Valls d'Aguilar","provincia":"Lleida","cota":"mil"}},
{"type":"Feature","geometry":{"type":"Point","coordinates":[1.2150349650016048,42.40861202326912]},"properties":{"id":268,"clase":"Cima principal","nombre":"Torreta de l'Orri","cotatxt":2.439,"puerto_carretera":"No","municipio":"Soriguera","provincia":"Lleida","cota":"dosmil"}},
{"type":"Feature","geometry":{"type":"Point","coordinates":[2.2310982149678242,41.46473767367701]},"properties":{"id":269,"clase":"Cima principal","nombre":"Montigalar","cotatxt":152,"puerto_carretera":"No","municipio":"Badalona","provincia":"Barcelona","cota":"menosmil"}},
{"type":"Feature","geometry":{"type":"Point","coordinates":[1.5818519555305024,42.11669823494447]},"properties":{"id":270,"clase":"Cima principal","nombre":"Mola de Lord","cotatxt":1.186,"puerto_carretera":"No","municipio":"Sant Llorenç de Morunys","provincia":"Lleida","cota":"mil"}},
{"type":"Feature","geometry":{"type":"Point","coordinates":[1.520881018171441,42.18475910050491]},"properties":{"id":271,"clase":"Cima principal","nombre":"Pedró dels Quatre Batlles","cotatxt":2.387,"puerto_carretera":"No","municipio":"Odèn","provincia":"Lleida","cota":"dosmil"}},
{"type":"Feature","geometry":{"type":"Point","coordinates":[-7.380146250629836,42.15395967681053]},"properties":{"id":272,"clase":"Cima principal","nombre":"Cabeza da Veiga do Fial","cotatxt":1.55,"puerto_carretera":"No","municipio":"Vilariño de Conso","provincia":"Ourense","cota":"mil"}},
{"type":"Feature","geometry":{"type":"Point","coordinates":[1.1345857998447921,42.23464643039627]},"properties":{"id":273,"clase":"Cima principal","nombre":"Cap de Boumort","cotatxt":2.076,"puerto_carretera":"No","municipio":"Conca de Dalt","provincia":"Lleida","cota":"dosmil"}},
{"type":"Feature","geometry":{"type":"Point","coordinates":[2.213768106051118,42.4239440199464]},"properties":{"id":274,"clase":"Cima principal","nombre":"Pic de l'Infern/Pic de l'Enfer","cotatxt":2.872,"puerto_carretera":"No","municipio":"","provincia":"","cota":"dosmil"}},
{"type":"Feature","geometry":{"type":"Point","coordinates":[-8.369445669942786,42.50138292766525]},"properties":{"id":275,"clase":"Cima principal","nombre":"Outeiro do Couto","cotatxt":1.014,"puerto_carretera":"No","municipio":"Forcarei","provincia":"Pontevedra","cota":"mil"}},
{"type":"Feature","geometry":{"type":"Point","coordinates":[-2.993851895342472,37.86939546787871]},"properties":{"id":276,"clase":"Cima principal","nombre":"Morro de la Lancha de Gilillo/Gilillo","cotatxt":1.851,"puerto_carretera":"No","municipio":"Peal de Becerro","provincia":"Jaén","cota":"mil"}},
{"type":"Feature","geometry":{"type":"Point","coordinates":[1.7299076210977042,42.49241744853407]},"properties":{"id":277,"clase":"Cima principal","nombre":"Tosseta de l'Esquella","cotatxt":2.869,"puerto_carretera":"No","municipio":"Lles de Cerdanya","provincia":"Lleida","cota":"dosmil"}},
{"type":"Feature","geometry":{"type":"Point","coordinates":[1.522496972383197,42.19066450150641]},"properties":{"id":278,"clase":"Cima principal","nombre":"Tossa Pelada","cotatxt":2.379,"puerto_carretera":"No","municipio":"La Coma i la Pedra","provincia":"Lleida","cota":"dosmil"}},
{"type":"Feature","geometry":{"type":"Point","coordinates":[-6.8072563402867265,42.248210049519]},"properties":{"id":279,"clase":"Cima principal","nombre":"Lomo Renán","cotatxt":2.009,"puerto_carretera":"No","municipio":"A Veiga","provincia":"Ourense","cota":"dosmil"}},
{"type":"Feature","geometry":{"type":"Point","coordinates":[-6.79606569980568,42.24237593924776]},"properties":{"id":280,"clase":"Cima principal","nombre":"Peña Trevinca/Pena Trevinca","cotatxt":2.127,"puerto_carretera":"No","municipio":"Porto","provincia":"Zamora","cota":"dosmil"}},
{"type":"Feature","geometry":{"type":"Point","coordinates":[1.3472536806560866,42.151140034063324]},"properties":{"id":281,"clase":"Cima principal","nombre":"Pic de Turp","cotatxt":1.62,"puerto_carretera":"No","municipio":"Coll de Nargó","provincia":"Lleida","cota":"mil"}},
{"type":"Feature","geometry":{"type":"Point","coordinates":[0.7327104392839185,42.76560153969455]},"properties":{"id":282,"clase":"Cima principal","nombre":"Montanha d'Uishèra","cotatxt":2.335,"puerto_carretera":"No","municipio":"Arres","provincia":"Lleida","cota":"dosmil"}},
{"type":"Feature","geometry":{"type":"Point","coordinates":[-3.846965457246577,40.980014854467775]},"properties":{"id":283,"clase":"Cima principal","nombre":"Pico del Nevero","cotatxt":2.211,"puerto_carretera":"No","municipio":"Torre Val de San Pedro","provincia":"Segovia","cota":"dosmil"}},
{"type":"Feature","geometry":{"type":"Point","coordinates":[-5.393512121026332,36.9003847648747]},"properties":{"id":284,"clase":"Cima principal","nombre":"Líjar","cotatxt":1.051,"puerto_carretera":"No","municipio":"Algodonales","provincia":"Cádiz","cota":"mil"}},
{"type":"Feature","geometry":{"type":"Point","coordinates":[-1.8592462975271493,40.40098574812146]},"properties":{"id":285,"clase":"Cima principal","nombre":"San Felipe","cotatxt":1.838,"puerto_carretera":"No","municipio":"Cuenca","provincia":"Cuenca","cota":"mil"}},
{"type":"Feature","geometry":{"type":"Point","coordinates":[-0.7970923749982008,42.80455784265876]},"properties":{"id":286,"clase":"Cima principal","nombre":"Pueyo de Segarra","cotatxt":1.994,"puerto_carretera":"No","municipio":"Ansó","provincia":"Huesca","cota":"mil"}},
{"type":"Feature","geometry":{"type":"Point","coordinates":[-2.6580086397401845,42.01043792932213]},"properties":{"id":287,"clase":"Cima principal","nombre":"Cebollera","cotatxt":2.162,"puerto_carretera":"No","municipio":"Villoslada de Cameros","provincia":"La Rioja","cota":"dosmil"}},
{"type":"Feature","geometry":{"type":"Point","coordinates":[-2.0705316926757606,39.95224088740494]},"properties":{"id":288,"clase":"Cima principal","nombre":"Talayuelo","cotatxt":1.231,"puerto_carretera":"No","municipio":"Arcas","provincia":"Cuenca","cota":"mil"}},
{"type":"Feature","geometry":{"type":"Point","coordinates":[-2.9821205499087644,41.28470359976431]},"properties":{"id":289,"clase":"Cima principal","nombre":"Cerro Torreplazo","cotatxt":1.427,"puerto_carretera":"No","municipio":"Miedes de Atienza","provincia":"Guadalajara","cota":"mil"}},
{"type":"Feature","geometry":{"type":"Point","coordinates":[2.1676122984437804,42.42467748773299]},"properties":{"id":290,"clase":"Cima principal","nombre":"Pic de Noufonts","cotatxt":2.861,"puerto_carretera":"No","municipio":"Queralbs","provincia":"Girona","cota":"dosmil"}},
{"type":"Feature","geometry":{"type":"Point","coordinates":[-0.7511792598412995,39.92468153712144]},"properties":{"id":291,"clase":"Cima principal","nombre":"Peña Escabia","cotatxt":1.335,"puerto_carretera":"No","municipio":"Bejís","provincia":"Castelló/Castellón","cota":"mil"}},
{"type":"Feature","geometry":{"type":"Point","coordinates":[-3.9956935998388374,41.54824579150663]},"properties":{"id":292,"clase":"Cima principal","nombre":"Cuchillejo","cotatxt":932,"puerto_carretera":"No","municipio":"Castrillo de Duero","provincia":"Valladolid","cota":"menosmil"}},
{"type":"Feature","geometry":{"type":"Point","coordinates":[-2.771337263596622,42.188079797636284]},"properties":{"id":293,"clase":"Cima principal","nombre":"Alto de San Cristóbal","cotatxt":1.761,"puerto_carretera":"No","municipio":"Brieva de Cameros","provincia":"La Rioja","cota":"mil"}},
{"type":"Feature","geometry":{"type":"Point","coordinates":[0.2899021175000646,42.652056127342064]},"properties":{"id":294,"clase":"Cima principal","nombre":"Punta Suelza","cotatxt":2.971,"puerto_carretera":"No","municipio":"Gistaín","provincia":"Huesca","cota":"dosmil"}},
{"type":"Feature","geometry":{"type":"Point","coordinates":[-4.7294376748246085,43.19073895689127]},"properties":{"id":295,"clase":"Cima principal","nombre":"Silla Caballo Cimero","cotatxt":2.434,"puerto_carretera":"No","municipio":"Camaleño","provincia":"Cantabria","cota":"dosmil"}},
{"type":"Feature","geometry":{"type":"Point","coordinates":[2.6307264587100923,42.312817150798985]},"properties":{"id":296,"clase":"Cima principal","nombre":"Puig de Bassegoda","cotatxt":1.372,"puerto_carretera":"No","municipio":"Albanyà","provincia":"Girona","cota":"mil"}},
{"type":"Feature","geometry":{"type":"Point","coordinates":[-0.5297700796127238,42.31155774569266]},"properties":{"id":297,"clase":"Cima principal","nombre":"Pico de Caballera","cotatxt":1.565,"puerto_carretera":"No","municipio":"Arguis","provincia":"Huesca","cota":"mil"}},
{"type":"Feature","geometry":{"type":"Point","coordinates":[1.6704150142522411,42.28145125326738]},"properties":{"id":298,"clase":"Cima principal","nombre":"Pic de Costa Cabirolera","cotatxt":2.604,"puerto_carretera":"No","municipio":"Josa i Tuixén","provincia":"Lleida","cota":"dosmil"}},
{"type":"Feature","geometry":{"type":"Point","coordinates":[-5.293816002934929,40.254184654863636]},"properties":{"id":299,"clase":"Cima principal","nombre":"Risco Moreno","cotatxt":2.499,"puerto_carretera":"No","municipio":"Zapardiel de la Ribera","provincia":"Ávila","cota":"dosmil"}},
{"type":"Feature","geometry":{"type":"Point","coordinates":[-1.1060523608453403,41.16832548532459]},"properties":{"id":300,"clase":"Cima principal","nombre":"Herrera","cotatxt":1.342,"puerto_carretera":"No","municipio":"Herrera de los Navarros","provincia":"Zaragoza","cota":"mil"}},
{"type":"Feature","geometry":{"type":"Point","coordinates":[-5.7370459759468195,43.02166156676054]},"properties":{"id":301,"clase":"Cima principal","nombre":"Pico Cellón","cotatxt":2.028,"puerto_carretera":"No","municipio":"Villamanín","provincia":"León","cota":"dosmil"}},
{"type":"Feature","geometry":{"type":"Point","coordinates":[0.8472927905784028,41.46642565497576]},"properties":{"id":302,"clase":"Cima principal","nombre":"Els Bessons","cotatxt":597,"puerto_carretera":"No","municipio":"Les Borges Blanques","provincia":"Lleida","cota":"menosmil"}},
{"type":"Feature","geometry":{"type":"Point","coordinates":[0.4383410897074306,42.594508522851974]},"properties":{"id":303,"clase":"Cima principal","nombre":"Tuca de Cambra","cotatxt":2.628,"puerto_carretera":"No","municipio":"Sahún","provincia":"Huesca","cota":"dosmil"}},
{"type":"Feature","geometry":{"type":"Point","coordinates":[-3.3997674154189506,41.25251074738463]},"properties":{"id":304,"clase":"Cima principal","nombre":"Cerro de Mesa Peñota","cotatxt":2.042,"puerto_carretera":"No","municipio":"Cantalojas","provincia":"Guadalajara","cota":"dosmil"}},
{"type":"Feature","geometry":{"type":"Point","coordinates":[-1.4657448775345971,41.59137674139037]},"properties":{"id":305,"clase":"Cima principal","nombre":"Monegre","cotatxt":928,"puerto_carretera":"No","municipio":"Nigüella","provincia":"Zaragoza","cota":"menosmil"}},
{"type":"Feature","geometry":{"type":"Point","coordinates":[-7.345643350260548,37.579594589804145]},"properties":{"id":306,"clase":"Cima principal","nombre":"Cumbre del Guapero","cotatxt":242,"puerto_carretera":"No","municipio":"El Almendro","provincia":"Huelva","cota":"menosmil"}},
{"type":"Feature","geometry":{"type":"Point","coordinates":[-1.8517704377826385,40.31894870750234]},"properties":{"id":307,"clase":"Cima principal","nombre":"Cerro de la Nevera","cotatxt":1.796,"puerto_carretera":"No","municipio":"Cuenca","provincia":"Cuenca","cota":"mil"}},
{"type":"Feature","geometry":{"type":"Point","coordinates":[-6.506258449789488,42.19428419944474]},"properties":{"id":308,"clase":"Cima principal","nombre":"El Vizcodillo","cotatxt":2.12,"puerto_carretera":"No","municipio":"Truchas","provincia":"León","cota":"dosmil"}},
{"type":"Feature","geometry":{"type":"Point","coordinates":[0.35062265037200824,42.37400954613318]},"properties":{"id":309,"clase":"Cima principal","nombre":"Campanué","cotatxt":1.549,"puerto_carretera":"No","municipio":"La Fueva","provincia":"Huesca","cota":"mil"}},
{"type":"Feature","geometry":{"type":"Point","coordinates":[1.3271680857250998,42.49592947251043]},"properties":{"id":310,"clase":"Cima principal","nombre":"Cap del Ras de la Font Negra","cotatxt":2.386,"puerto_carretera":"No","municipio":"Farrera","provincia":"Lleida","cota":"dosmil"}},
{"type":"Feature","geometry":{"type":"Point","coordinates":[-0.031101555310109476,42.674569474037376]},"properties":{"id":311,"clase":"Cima principal","nombre":"Tozal d'a Plana","cotatxt":2.622,"puerto_carretera":"No","municipio":"Fanlo","provincia":"Huesca","cota":"dosmil"}},
{"type":"Feature","geometry":{"type":"Point","coordinates":[-0.8411425738003726,42.85319350035797]},"properties":{"id":312,"clase":"Cima principal","nombre":"Peña Ezkaurre","cotatxt":2.045,"puerto_carretera":"No","municipio":"Isaba/Izaba","provincia":"Navarra","cota":"dosmil"}},
{"type":"Feature","geometry":{"type":"Point","coordinates":[-3.3337915396072155,43.16546283689178]},"properties":{"id":313,"clase":"Cima principal","nombre":"Balgerri","cotatxt":1.104,"puerto_carretera":"No","municipio":"Karrantza Harana/Valle de Carranza","provincia":"Bizkaia","cota":"mil"}},
{"type":"Feature","geometry":{"type":"Point","coordinates":[0.40138068528338605,41.388713647729325]},"properties":{"id":314,"clase":"Cima principal","nombre":"Punta de Montmaneu","cotatxt":494,"puerto_carretera":"No","municipio":"Seròs","provincia":"Lleida","cota":"menosmil"}},
{"type":"Feature","geometry":{"type":"Point","coordinates":[2.4072186145518444,42.075688254182324]},"properties":{"id":315,"clase":"Cima principal","nombre":"Cabrera","cotatxt":1.307,"puerto_carretera":"No","municipio":"L'Esquirol","provincia":"Barcelona","cota":"mil"}},
{"type":"Feature","geometry":{"type":"Point","coordinates":[-6.081264035398405,43.075857973724126]},"properties":{"id":316,"clase":"Cima principal","nombre":"Las Piedras","cotatxt":1.927,"puerto_carretera":"No","municipio":"San Emiliano","provincia":"León","cota":"mil"}},
{"type":"Feature","geometry":{"type":"Point","coordinates":[2.23192049954124,42.42640592140659]},"properties":{"id":317,"clase":"Cima principal","nombre":"Bastiments/Pic del Gegant","cotatxt":2.881,"puerto_carretera":"No","municipio":"Queralbs","provincia":"Girona","cota":"dosmil"}},
{"type":"Feature","geometry":{"type":"Point","coordinates":[2.908904654453962,41.98453005685006]},"properties":{"id":318,"clase":"Cima principal","nombre":"Puig Alt","cotatxt":486,"puerto_carretera":"No","municipio":"Sant Martí Vell","provincia":"Girona","cota":"menosmil"}},
{"type":"Feature","geometry":{"type":"Point","coordinates":[2.2477436162968902,42.41546669848084]},"properties":{"id":319,"clase":"Cima principal","nombre":"Gra de Fajol","cotatxt":2.717,"puerto_carretera":"No","municipio":"Queralbs","provincia":"Girona","cota":"dosmil"}},
{"type":"Feature","geometry":{"type":"Point","coordinates":[0.7586741485984592,42.78523460420608]},"properties":{"id":320,"clase":"Cima principal","nombre":"Montlude","cotatxt":2.519,"puerto_carretera":"No","municipio":"Vilamòs","provincia":"Lleida","cota":"dosmil"}},
{"type":"Feature","geometry":{"type":"Point","coordinates":[0.7053803978121014,42.64317945253523]},"properties":{"id":321,"clase":"Cima principal","nombre":"Malh des Puis/La Forcanada","cotatxt":2.883,"puerto_carretera":"No","municipio":"Vielha e Mijaran","provincia":"Lleida","cota":"dosmil"}},
{"type":"Feature","geometry":{"type":"Point","coordinates":[0.758446230739518,42.70768341999553]},"properties":{"id":322,"clase":"Cima principal","nombre":"Montcorbison","cotatxt":2.171,"puerto_carretera":"No","municipio":"Vielha e Mijaran","provincia":"Lleida","cota":"dosmil"}},
{"type":"Feature","geometry":{"type":"Point","coordinates":[2.928291158871314,41.75747577089661]},"properties":{"id":323,"clase":"Cima principal","nombre":"Puig de ses Cadiretes","cotatxt":517,"puerto_carretera":"No","municipio":"Tossa de Mar","provincia":"Girona","cota":"menosmil"}},
{"type":"Feature","geometry":{"type":"Point","coordinates":[1.581512090519174,41.5569917396289]},"properties":{"id":324,"clase":"Cima principal","nombre":"Tossa de Montbui","cotatxt":619,"puerto_carretera":"No","municipio":"Santa Margarida de Montbui","provincia":"Barcelona","cota":"menosmil"}},
{"type":"Feature","geometry":{"type":"Point","coordinates":[2.763442472722753,42.13188688611996]},"properties":{"id":325,"clase":"Cima principal","nombre":"Puig de Sant Martirià","cotatxt":241,"puerto_carretera":"No","municipio":"Banyoles","provincia":"Girona","cota":"menosmil"}},
{"type":"Feature","geometry":{"type":"Point","coordinates":[2.543979249113762,42.14150454120872]},"properties":{"id":326,"clase":"Cima principal","nombre":"Volcà de Santa Margarida","cotatxt":767,"puerto_carretera":"No","municipio":"Santa Pau","provincia":"Girona","cota":"menosmil"}},
{"type":"Feature","geometry":{"type":"Point","coordinates":[1.786983168737429,42.121508337170525]},"properties":{"id":327,"clase":"Cima principal","nombre":"Cogulló d'Estela","cotatxt":1.862,"puerto_carretera":"No","municipio":"Castellar del Riu","provincia":"Barcelona","cota":"mil"}},
{"type":"Feature","geometry":{"type":"Point","coordinates":[2.4569228762275697,42.36326786625323]},"properties":{"id":328,"clase":"Cima principal","nombre":"Montfalgars","cotatxt":1.614,"puerto_carretera":"No","municipio":"","provincia":"Girona","cota":"mil"}},
{"type":"Feature","geometry":{"type":"Point","coordinates":[2.326741327635063,41.51550292913641]},"properties":{"id":329,"clase":"Cima principal","nombre":"Sant Mateu","cotatxt":498,"puerto_carretera":"No","municipio":"Premià de Dalt","provincia":"Barcelona","cota":"menosmil"}},
{"type":"Feature","geometry":{"type":"Point","coordinates":[1.9354904524322403,42.30056409638274]},"properties":{"id":330,"clase":"Cima principal","nombre":"Puigllançada","cotatxt":2.407,"puerto_carretera":"No","municipio":"Bagà","provincia":"Barcelona","cota":"dosmil"}},
{"type":"Feature","geometry":{"type":"Point","coordinates":[0.22709505873456298,40.73420623983161]},"properties":{"id":331,"clase":"Cima principal","nombre":"El Negrell","cotatxt":1.346,"puerto_carretera":"No","municipio":"La Sénia","provincia":"Tarragona","cota":"mil"}},
{"type":"Feature","geometry":{"type":"Point","coordinates":[2.7062977215684985,42.258854915871666]},"properties":{"id":332,"clase":"Cima principal","nombre":"el Mont","cotatxt":1.122,"puerto_carretera":"No","municipio":"Albanyà","provincia":"Girona","cota":"mil"}},
{"type":"Feature","geometry":{"type":"Point","coordinates":[2.1646972419906216,41.36401713314175]},"properties":{"id":333,"clase":"Cima principal","nombre":"Montjuïc","cotatxt":178,"puerto_carretera":"No","municipio":"Barcelona","provincia":"Barcelona","cota":"menosmil"}},
{"type":"Feature","geometry":{"type":"Point","coordinates":[2.3383791090403525,41.5569745009049]},"properties":{"id":334,"clase":"Cima principal","nombre":"Turó de Céllecs","cotatxt":533,"puerto_carretera":"No","municipio":"Òrrius","provincia":"Barcelona","cota":"menosmil"}},
{"type":"Feature","geometry":{"type":"Point","coordinates":[1.0023896085476987,42.182928221280925]},"properties":{"id":335,"clase":"Cima principal","nombre":"Sant Corneli","cotatxt":1.346,"puerto_carretera":"No","municipio":"Isona i Conca Dellà","provincia":"Lleida","cota":"mil"}},
{"type":"Feature","geometry":{"type":"Point","coordinates":[2.128393803381621,41.65536184253596]},"properties":{"id":336,"clase":"Cima principal","nombre":"el Farell","cotatxt":812,"puerto_carretera":"No","municipio":"Caldes de Montbui","provincia":"Barcelona","cota":"menosmil"}},
{"type":"Feature","geometry":{"type":"Point","coordinates":[0.8781193599019531,41.341420294612035]},"properties":{"id":337,"clase":"Cima principal","nombre":"Punta del General","cotatxt":925,"puerto_carretera":"No","municipio":"La Pobla de Cérvoles","provincia":"Lleida","cota":"menosmil"}},
{"type":"Feature","geometry":{"type":"Point","coordinates":[0.5554019719225652,40.68287517885126]},"properties":{"id":338,"clase":"Cima principal","nombre":"Montsianell","cotatxt":294,"puerto_carretera":"No","municipio":"Amposta","provincia":"Tarragona","cota":"menosmil"}},
{"type":"Feature","geometry":{"type":"Point","coordinates":[3.120622730345705,42.05791269935519]},"properties":{"id":339,"clase":"Cima principal","nombre":"Muntanya d'Ullà","cotatxt":308,"puerto_carretera":"No","municipio":"Torroella de Montgrí","provincia":"Girona","cota":"menosmil"}},
{"type":"Feature","geometry":{"type":"Point","coordinates":[1.0672923766839524,41.75350381946542]},"properties":{"id":340,"clase":"Cima principal","nombre":"Pilar d'Almenara","cotatxt":462,"puerto_carretera":"No","municipio":"Agramunt","provincia":"Lleida","cota":"menosmil"}},
{"type":"Feature","geometry":{"type":"Point","coordinates":[1.8847793365281624,41.3459271867023]},"properties":{"id":341,"clase":"Cima principal","nombre":"Montau","cotatxt":658,"puerto_carretera":"No","municipio":"Olesa de Bonesvalls","provincia":"Barcelona","cota":"menosmil"}},
{"type":"Feature","geometry":{"type":"Point","coordinates":[0.8736835634705913,41.107397888746405]},"properties":{"id":342,"clase":"Cima principal","nombre":"Mola de Colldejou","cotatxt":921,"puerto_carretera":"No","municipio":"Colldejou","provincia":"Tarragona","cota":"menosmil"}},
{"type":"Feature","geometry":{"type":"Point","coordinates":[2.0847382955691964,42.36196594857159]},"properties":{"id":343,"clase":"Cima principal","nombre":"Puig de Dòrria","cotatxt":2.548,"puerto_carretera":"No","municipio":"","provincia":"","cota":"dosmil"}},
{"type":"Feature","geometry":{"type":"Point","coordinates":[1.4355269500536971,42.6058128859225]},"properties":{"id":344,"clase":"Cima principal","nombre":"Pic de Lavans","cotatxt":2.895,"puerto_carretera":"No","municipio":"","provincia":"","cota":"dosmil"}},
{"type":"Feature","geometry":{"type":"Point","coordinates":[2.2611856495772935,42.43754591555235]},"properties":{"id":345,"clase":"Cima principal","nombre":"Pic de la Dona","cotatxt":2.704,"puerto_carretera":"No","municipio":"","provincia":"","cota":"dosmil"}},
{"type":"Feature","geometry":{"type":"Point","coordinates":[1.4443127888410674,42.56730284455213]},"properties":{"id":346,"clase":"Cima principal","nombre":"Pic de Port Negre","cotatxt":2.568,"puerto_carretera":"No","municipio":"","provincia":"Andorra","cota":"dosmil"}},
{"type":"Feature","geometry":{"type":"Point","coordinates":[0.5074621721447192,42.692685078459675]},"properties":{"id":347,"clase":"Cima principal","nombre":"Pico del Portillón de Oô","cotatxt":3.044,"puerto_carretera":"No","municipio":"Benasque","provincia":"","cota":"tresmil"}},
{"type":"Feature","geometry":{"type":"Point","coordinates":[-0.9562945917323067,42.95934405893186]},"properties":{"id":348,"clase":"Cima principal","nombre":"Mulidoiako Gaña","cotatxt":1.732,"puerto_carretera":"No","municipio":"","provincia":"","cota":"mil"}},
{"type":"Feature","geometry":{"type":"Point","coordinates":[0.597116586020313,42.70554590661741]},"properties":{"id":349,"clase":"Cima principal","nombre":"Pico de Sacroux","cotatxt":2.671,"puerto_carretera":"No","municipio":"Benasque","provincia":"","cota":"dosmil"}},
{"type":"Feature","geometry":{"type":"Point","coordinates":[-0.13830972357385504,42.76655835769118]},"properties":{"id":350,"clase":"Cima principal","nombre":"Pico de Montferrat","cotatxt":3.217,"puerto_carretera":"No","municipio":"Torla-Ordesa","provincia":"","cota":"tresmil"}},
{"type":"Feature","geometry":{"type":"Point","coordinates":[2.121277721603331,42.39709561939754]},"properties":{"id":351,"clase":"Cima principal","nombre":"Pic de Segre","cotatxt":2.843,"puerto_carretera":"No","municipio":"","provincia":"","cota":"dosmil"}},
{"type":"Feature","geometry":{"type":"Point","coordinates":[-0.7311368873501566,42.93900891069938]},"properties":{"id":352,"clase":"Cima principal","nombre":"Pico de Añelarra","cotatxt":2.357,"puerto_carretera":"No","municipio":"","provincia":"","cota":"dosmil"}},
{"type":"Feature","geometry":{"type":"Point","coordinates":[0.5300238455956471,42.70264802097989]},"properties":{"id":353,"clase":"Cima principal","nombre":"Tuca de l'Estraperlo","cotatxt":3.104,"puerto_carretera":"No","municipio":"Benasque","provincia":"","cota":"tresmil"}},
{"type":"Feature","geometry":{"type":"Point","coordinates":[0.3927633021713519,42.713250720610716]},"properties":{"id":354,"clase":"Cima principal","nombre":"Punta de l'Abella","cotatxt":3.028,"puerto_carretera":"No","municipio":"","provincia":"","cota":"tresmil"}},
{"type":"Feature","geometry":{"type":"Point","coordinates":[0.39439783623814106,42.698556529720115]},"properties":{"id":355,"clase":"Cima principal","nombre":"Gran Bachimala/Pico Schrader","cotatxt":3.176,"puerto_carretera":"No","municipio":"Gistaín","provincia":"Huesca","cota":"tresmil"}},
{"type":"Feature","geometry":{"type":"Point","coordinates":[-0.14735712212753255,42.77392583660968]},"properties":{"id":356,"clase":"Cima principal","nombre":"Punda de Camachibosa/Viñamala","cotatxt":3.299,"puerto_carretera":"No","municipio":"","provincia":"","cota":"tresmil"}},
{"type":"Feature","geometry":{"type":"Point","coordinates":[-0.23784691352180404,42.80824420240245]},